{"BDHL": {"state": "Rajasthan", "name": "Badhal", "zone": "NWR", "address": "Kishangarh Renwal, Rajasthan", "coordinates": [75.4516454, 27.2520587]}, "XX-BECE": {"state": null, "name": "XX-BECE", "zone": null, "address": null, "coordinates": "NA"}, "XX-BSPY": {"state": null, "name": "XX-BSPY", "zone": null, "address": null, "coordinates": "NA"}, "YY-BPLC": {"state": null, "name": "YY-BPLC", "zone": null, "address": null, "coordinates": "NA"}, "KHH": {"state": "Uttar Pradesh", "name": "KICHHA", "zone": "NER", "address": "Kichha, Uttar Pradesh", "coordinates": [79.519746, 28.913427000000002]}, "SRKN": {"state": "Rajasthan", "name": "Sherekan", "zone": "NWR", "address": "MDR 89, Rajasthan", "coordinates": [74.43499088287354, 29.55519806064484]}, "BKKA": {"state": "Rajasthan", "name": "Bhukarka", "zone": "NWR", "address": "Bhukarka, Rajasthan", "coordinates": [74.75103096105158, 29.238227312503696]}, "NHR": {"state": "Rajasthan", "name": "Nohar", "zone": "NWR", "address": "State Highway 36, Rajasthan", "coordinates": [74.77362781763077, 29.192562738768984]}, "PRGD": {"state": "Tamil Nadu", "name": "Perungudi", "zone": "SR", "address": "Chennai, Tamil Nadu", "coordinates": [80.231363, 12.975217]}, "KNNA": {"state": "Haryana", "name": "Khinaniyan", "zone": "NWR", "address": "State Highway 23, Haryana", "coordinates": [74.7179570607841, 29.345637263205944]}, "JKR": {"state": null, "name": "JAULKHERA", "zone": null, "address": null, "coordinates": [78.216684, 21.838466]}, "BYS": {"state": null, "name": "BARSALI", "zone": null, "address": null, "coordinates": [78.03136099999999, 21.909813]}, "GW": {"state": null, "name": "GIRWAR", "zone": null, "address": null, "coordinates": [78.936311, 23.838185999999997]}, "DGD": {"state": null, "name": "DANGIDHAR", "zone": null, "address": null, "coordinates": [79.019912, 23.871771000000003]}, "DOD": {"state": "Madhya Pradesh", "name": "DHODHAR", "zone": "WR", "address": "Dhodar, Madhya Pradesh", "coordinates": [75.10354600000001, 23.770740999999997]}, "GAJ": {"state": null, "name": "GANESHGANJ", "zone": null, "address": null, "coordinates": [79.074633, 23.895862]}, "JNM": {"state": "West Bengal", "name": "Jayanagar Majilpur Halt", "zone": "ER", "address": "Jaynagar, West Bengal", "coordinates": [88.415324, 22.168635]}, "NSD": {"state": "Rajasthan", "name": "NASIRABAD", "zone": "NWR", "address": "Nasirabad, Rajasthan", "coordinates": [74.71699100000001, 26.294459999999997]}, "PHA": {"state": null, "name": "PATHARIA", "zone": null, "address": null, "coordinates": [79.192899, 23.905726]}, "NZB": {"state": "Andhra Pradesh", "name": "NIZAMABAD", "zone": "SCR", "address": "Nizamabad, Andhra Pradesh", "coordinates": [78.103238, 18.679164999999998]}, "RJO": {"state": null, "name": "RAJENDRA PUL", "zone": null, "address": null, "coordinates": [86.01054599999999, 25.387446999999998]}, "ADT": {"state": "Tamil Nadu", "name": "ADUTURAI", "zone": "SR", "address": "Aduthurai, Tamil Nadu", "coordinates": [79.478668, 11.009165]}, "KMU": {"state": "Tamil Nadu", "name": "KUMBAKONAM", "zone": "SR", "address": "Kumbakonam, Tamil Nadu", "coordinates": [79.388644, 10.952962]}, "MNM": {"state": "Tamil Nadu", "name": "MANAMADURAI JN", "zone": "SR", "address": "Sivaganga, Tamil Nadu", "coordinates": [78.45351, 9.681538999999999]}, "GKP": {"state": null, "name": "GORAKHPUR JN", "zone": null, "address": null, "coordinates": [83.381499, 26.759311]}, "BJUP": {"state": null, "name": "BJUP", "zone": null, "address": null, "coordinates": "NA"}, "VRM": {"state": null, "name": "VARNAMA", "zone": null, "address": null, "coordinates": [73.16928300000001, 22.184274000000002]}, "GKC": {"state": null, "name": "GORAKHPUR CANT", "zone": null, "address": null, "coordinates": [83.416821, 26.750649]}, "ITA": {"state": null, "name": "ITOLA", "zone": null, "address": null, "coordinates": [73.156746, 22.149889]}, "CIKA": {"state": null, "name": "CIKA", "zone": null, "address": null, "coordinates": "NA"}, "XX-CPHO": {"state": null, "name": "XX-CPHO", "zone": null, "address": null, "coordinates": "NA"}, "BTU": {"state": "Uttar Pradesh", "name": "BARAUT", "zone": "NR", "address": "Baraut, Uttar Pradesh", "coordinates": [77.273006, 29.09692]}, "MOGA": {"state": "Punjab", "name": "Moga", "zone": "NR", "address": "Moga, Punjab", "coordinates": [75.16846699999999, 30.817296]}, "SIOB": {"state": null, "name": "SAMAKHIALI JN", "zone": null, "address": null, "coordinates": [70.503394, 23.309819]}, "LLHW": {"state": null, "name": "LLHW", "zone": null, "address": null, "coordinates": "NA"}, "RDK": {"state": "Rajasthan", "name": "Rasheedpura Khori", "zone": "NWR", "address": "MDR 87, Rajasthan", "coordinates": [75.087121, 27.713786000000002]}, "PVD": {"state": null, "name": "PEDDAVADIAPUDI", "zone": null, "address": null, "coordinates": [80.612645, 16.414205000000003]}, "YLM": {"state": null, "name": "ELLAMANCHILI", "zone": null, "address": null, "coordinates": [82.85262, 17.553652000000003]}, "CHPT": {"state": null, "name": "Chatrappatti", "zone": null, "address": null, "coordinates": [77.655113, 10.476970999999999]}, "JLD": {"state": null, "name": "JARWAL ROAD", "zone": null, "address": null, "coordinates": [81.540406, 27.120389]}, "BRJN": {"state": null, "name": "BRAJRAJNAGAR", "zone": null, "address": null, "coordinates": [83.923653, 21.822718000000002]}, "CLJ": {"state": null, "name": "COLONELGANJ", "zone": null, "address": null, "coordinates": [81.69417800000001, 27.137698]}, "KTHL": {"state": null, "name": "KATHOLA", "zone": null, "address": null, "coordinates": [81.8556626477, 27.1465555756]}, "MND": {"state": null, "name": "MUNDERWA", "zone": null, "address": null, "coordinates": [82.903373, 26.776435]}, "SNSI": {"state": "Maharashtra", "name": "SAINAGAR SHIRDI", "zone": "CR", "address": "Near New Bus Stand Shirdi Sainagar, Maharashtra", "coordinates": [74.4806877, 19.780792299999998]}, "DLJ": {"state": "Gujarat", "name": "DHOLA JN", "zone": "WR", "address": "Dhola, Gujarat", "coordinates": [71.738273, 21.822549000000002]}, "PGW": {"state": null, "name": "PHAGWARA JN", "zone": null, "address": null, "coordinates": [75.7655019775, 31.217555749800002]}, "YY-BINP": {"state": null, "name": "YY-BINP", "zone": null, "address": null, "coordinates": "NA"}, "JUP": {"state": "Rajasthan", "name": "Jhunpa", "zone": "?", "address": "NH 65, Rajasthan", "coordinates": [75.521553, 28.777449]}, "XX-JSGB": {"state": null, "name": "XX-JSGB", "zone": null, "address": null, "coordinates": "NA"}, "JSG": {"state": null, "name": "JHARSUGUDA JN", "zone": null, "address": null, "coordinates": [84.017427, 21.862274]}, "KYW": {"state": null, "name": "KARCHHUE", "zone": null, "address": null, "coordinates": [84.20715351199999, 26.2311244405]}, "MHRN": {"state": null, "name": "MAHENDRANATH", "zone": null, "address": null, "coordinates": [84.509909, 26.000739]}, "TKVR": {"state": null, "name": "TAPPA KHAJURIAY", "zone": null, "address": null, "coordinates": [84.688889, 25.807401000000002]}, "DPI": {"state": null, "name": "DODDAMPATTI", "zone": null, "address": null, "coordinates": [78.42225009, 12.18134581]}, "SREE": {"state": null, "name": "SREE", "zone": null, "address": null, "coordinates": "NA"}, "AQG": {"state": "Rajasthan", "name": "ASHAPURA GOMAT", "zone": "NWR", "address": "National Highway 15, Rajasthan", "coordinates": [71.892665, 26.950232]}, "NEA": {"state": null, "name": "NEYKKARAPATTI", "zone": null, "address": null, "coordinates": [78.09669699999999, 11.612765]}, "GRL": {"state": null, "name": "GORAUL", "zone": null, "address": null, "coordinates": [85.318477, 25.931048999999998]}, "DKJC": {"state": null, "name": "DKJC", "zone": null, "address": null, "coordinates": "NA"}, "KHI": {"state": null, "name": "KURHANI", "zone": null, "address": null, "coordinates": [85.339288, 25.979631]}, "VNJ": {"state": null, "name": "TIRUPPUR VANJIPALAYAM", "zone": null, "address": null, "coordinates": [77.26580200000001, 11.117790999999999]}, "CBF": {"state": null, "name": "COIMBATORE NORTH", "zone": null, "address": null, "coordinates": [76.954304, 11.019937]}, "UMB": {"state": null, "name": "AMBALA CANT JN", "zone": null, "address": null, "coordinates": [76.826966, 30.338918]}, "SRO": {"state": null, "name": "SIRATHU", "zone": null, "address": null, "coordinates": [81.31786, 25.650642]}, "SJT": {"state": null, "name": "SHUJAATPUR", "zone": null, "address": null, "coordinates": [81.401934, 25.605607000000003]}, "BDNP": {"state": null, "name": "BIDANPUR", "zone": null, "address": null, "coordinates": [81.44201699999999, 25.585017]}, "MTPC": {"state": "Rajasthan", "name": "MOTIPURA CHAUKI", "zone": "WCR", "address": "Motipura, Rajasthan", "coordinates": [77.04829951629999, 24.6093382288]}, "HTZ": {"state": null, "name": "HATHIDAH JN", "zone": null, "address": null, "coordinates": [85.987826, 25.367027]}, "TSKG": {"state": null, "name": "TINSUKIA GOODS", "zone": null, "address": null, "coordinates": "NA"}, "DDNI": {"state": "Assam", "name": "DUDHNOI", "zone": "NFR", "address": "Dudhnoi Railway Station, Assam", "coordinates": [90.76188, 26.001459]}, "RDE": {"state": null, "name": "RUNDHI", "zone": null, "address": null, "coordinates": [77.350991, 28.067751]}, "IJ": {"state": "Uttar Pradesh", "name": "ITAUNJA", "zone": "NER", "address": "Itaunja, Uttar Pradesh", "coordinates": [80.89123400000001, 27.081066999999997]}, "RMX": {"state": "Rajasthan", "name": "Ramsar", "zone": "NWR", "address": "Barmer, Rajasthan", "coordinates": [70.866078, 25.722252]}, "PBE": {"state": "Uttar Pradesh", "name": "PILIBHIT JN", "zone": "NER", "address": "Pilibhit, Uttar Pradesh", "coordinates": [79.813946, 28.614977999999997]}, "RMB": {"state": "Rajasthan", "name": "Rampura Beri", "zone": "NWR", "address": "Rampura Bhal, Rajasthan", "coordinates": [75.64547982849999, 28.5301320576]}, "MGS": {"state": null, "name": "MUGHAL SARAI JN", "zone": null, "address": null, "coordinates": [83.11925000000001, 25.278149]}, "RSWT": {"state": "Rajasthan", "name": "Ramgarh Shekhawati", "zone": "NWR", "address": "Ramgarh, Rajasthan", "coordinates": [74.993046, 28.169397]}, "BKNA": {"state": null, "name": "BAKAINA HALT", "zone": null, "address": null, "coordinates": [78.27473099999999, 29.035800000000002]}, "HBD": {"state": null, "name": "HOSHANGABAD", "zone": null, "address": null, "coordinates": [77.715594, 22.75274]}, "ANA": {"state": null, "name": "ASLANA", "zone": null, "address": null, "coordinates": [79.319493, 23.860522]}, "BNI": {"state": null, "name": "BUDNI", "zone": null, "address": null, "coordinates": [77.6812826, 22.7871143]}, "YY-IDHW": {"state": null, "name": "YY-IDHW", "zone": null, "address": null, "coordinates": "NA"}, "DMGN": {"state": "Assam", "name": "DHAMALGAON", "zone": "NFR", "address": "A T Rd, Assam", "coordinates": [94.85656900000001, 27.325566]}, "LKPL": {"state": "Andhra Pradesh", "name": "LAKDIKAPUL", "zone": "SCR", "address": "Hyderabad, Andhra Pradesh", "coordinates": [78.463527, 17.404048000000003]}, "BRUD": {"state": "Madhya Pradesh", "name": "BARUD", "zone": "WCR", "address": "Khandwa, Madhya Pradesh", "coordinates": [76.814085, 22.052142]}, "DVL": {"state": null, "name": "DEVLALI", "zone": null, "address": null, "coordinates": [73.83729, 19.897509]}, "JRTR": {"state": null, "name": "Jurtara", "zone": null, "address": null, "coordinates": [79.76127199999999, 22.253004999999998]}, "REWA": {"state": "Madhya Pradesh", "name": "REWA", "zone": "WCR", "address": "Rewa, Madhya Pradesh", "coordinates": [81.250615, 24.537122]}, "DOK": {"state": "Gujarat", "name": "DHOLKA", "zone": "WR", "address": "Bagodara Dholka, Gujarat", "coordinates": [72.433842, 22.731982]}, "NDR": {"state": null, "name": "NANDESARI", "zone": null, "address": null, "coordinates": [73.0952734283, 22.418331636999998]}, "MYG": {"state": null, "name": "MIYAGAM KARJAN", "zone": null, "address": null, "coordinates": [73.120353, 22.050722]}, "MBA": {"state": "Uttar Pradesh", "name": "MAHOBA", "zone": "NCR", "address": "Junction Point - Khajuraho, Uttar Pradesh", "coordinates": [79.849079, 25.306914]}, "JGZ": {"state": "Madhya Pradesh", "name": "Jamgaon", "zone": "SECR", "address": "Bamhani, Madhya Pradesh", "coordinates": [80.198945, 22.418426]}, "BHKH": {"state": null, "name": "BAGHOI KUSA", "zone": null, "address": null, "coordinates": [84.46243313289999, 24.8399006513]}, "NOLI": {"state": "Uttar Pradesh", "name": "NOLI", "zone": "NR", "address": "Ghaziabad, Uttar Pradesh", "coordinates": [77.31077099999999, 28.746571]}, "SUJR": {"state": "Uttar Pradesh", "name": "SUJRA", "zone": "NR", "address": "State Highway 57, Uttar Pradesh", "coordinates": [77.26134099999999, 29.012729]}, "AMOD": {"state": "Gujarat", "name": "Amod", "zone": "WR", "address": "Amod, Gujarat", "coordinates": [72.86546467803419, 21.990791167399735]}, "LKD": {"state": null, "name": "LAKODARA", "zone": null, "address": null, "coordinates": [73.09899399999999, 21.991872]}, "VKL": {"state": "Gujarat", "name": "Vankal", "zone": "WR", "address": "SH 166, Gujarat", "coordinates": [73.23136643506587, 21.439673931772646]}, "BY": {"state": "Maharashtra", "name": "BYCULLA", "zone": "CR", "address": "Mumbai, Maharashtra", "coordinates": [72.833211, 18.97695]}, "BNR": {"state": null, "name": "BHAGWANPUR", "zone": null, "address": null, "coordinates": [85.30109021000001, 25.858316719999998]}, "KTY": {"state": "Tamil Nadu", "name": "Kotturu", "zone": "SWR", "address": "Kothur Rd, Tamil Nadu", "coordinates": [76.21354088187218, 14.826788325296278]}, "BLMR": {"state": "Assam", "name": "Bhalukmara", "zone": "NFR", "address": "Bhalukmara, Assam", "coordinates": [94.143709, 26.685532]}, "ANJ": {"state": "Maharashtra", "name": "Anjangaon", "zone": "CR", "address": "Anjangaon, Maharashtra", "coordinates": [77.31896504759789, 21.163199753077336]}, "DEB": {"state": "West Bengal", "name": "Debagram", "zone": "ER", "address": "Debagram, West Bengal", "coordinates": [88.306807, 23.685277]}, "ELP": {"state": "Maharashtra", "name": "Achalpur", "zone": "CR", "address": "Dist. Amravati, Maharashtra", "coordinates": [77.51926277764142, 21.27760302246017]}, "BTY": {"state": "West Bengal", "name": "Bethuadahari", "zone": "ER", "address": "Bethuadahari, West Bengal", "coordinates": [88.384597, 23.610275]}, "WARUD": {"state": "Maharashtra", "name": "Warud", "zone": "CR", "address": "Wardha, Maharashtra", "coordinates": [78.65141943097115, 20.74690547756532]}, "BVAC": {"state": null, "name": "BVAC", "zone": null, "address": null, "coordinates": "NA"}, "BVBC": {"state": null, "name": "BVBC", "zone": null, "address": null, "coordinates": "NA"}, "VLKN": {"state": "Tamil Nadu", "name": "Velankanni", "zone": "?", "address": "Velankanni, Tamil Nadu", "coordinates": [79.84618068672717, 10.686877168293023]}, "PCU": {"state": "Andhra Pradesh", "name": "PUTLACHERUVU", "zone": "SCR", "address": "Putlacheruvu, Andhra Pradesh", "coordinates": [81.112395, 16.484823]}, "BNPT": {"state": null, "name": "BENNIPATTI PIRAPUR", "zone": null, "address": null, "coordinates": [85.3090478906, 25.892949366]}, "JM": {"state": null, "name": "JALAMB JN", "zone": null, "address": null, "coordinates": [76.573236, 20.813007000000002]}, "GPJ": {"state": "Andhra Pradesh", "name": "Gorapur", "zone": "ECoR", "address": "Jeypore Rd, Andhra Pradesh", "coordinates": [82.79406, 18.346936]}, "ABEO": {"state": "", "name": "Pattaravakkam", "zone": "SR", "address": "", "coordinates": [80.16618146561086, 13.114499981582952]}, "SEG": {"state": null, "name": "SHEGAON", "zone": null, "address": null, "coordinates": [76.690331, 20.801724]}, "GDU": {"state": "Madhya Pradesh", "name": "Gudru Halt", "zone": "SECR", "address": "Lamta, Madhya Pradesh", "coordinates": [80.1163395764, 22.2718946035]}, "BGNA": {"state": "West Bengal", "name": "Balgona", "zone": "ER", "address": "Balgona, West Bengal", "coordinates": [87.95045644976199, 23.458049719226736]}, "KLNP": {"state": "West Bengal", "name": "Kalinarayanpur", "zone": "ER", "address": "Ranaghat-Bagula Bypass, West Bengal", "coordinates": [88.573216, 23.206506]}, "NGZ": {"state": null, "name": "S K NAGJIHARI", "zone": null, "address": null, "coordinates": [76.755353, 20.761640999999997]}, "PS": {"state": null, "name": "PARAS", "zone": null, "address": null, "coordinates": [76.815865, 20.724519]}, "BRDB": {"state": "West Bengal", "name": "Barda", "zone": "SER", "address": "Sutahata, West Bengal", "coordinates": [88.08753041, 22.15295838]}, "GAO": {"state": null, "name": "GAIGAON", "zone": null, "address": null, "coordinates": [76.890093, 20.720684]}, "RRL": {"state": null, "name": "REWRAL", "zone": null, "address": null, "coordinates": [79.468096, 21.261121]}, "KHAT": {"state": null, "name": "KHAT", "zone": null, "address": null, "coordinates": [79.550792, 21.242242]}, "BRD": {"state": null, "name": "BHANDARA ROAD", "zone": null, "address": null, "coordinates": [79.64752299999999, 21.238512]}, "KOKA": {"state": null, "name": "KOKA", "zone": null, "address": null, "coordinates": [79.71240900000001, 21.263021]}, "DAO": {"state": null, "name": "DAGHORA", "zone": null, "address": null, "coordinates": [83.678086, 21.857535000000002]}, "HGR": {"state": null, "name": "HEMAGIRI", "zone": null, "address": null, "coordinates": [83.742815, 21.876503999999997]}, "NIR": {"state": "Madhya Pradesh", "name": "Nainpur Junction", "zone": "SECR", "address": "Nainpur, Madhya Pradesh", "coordinates": [80.108853, 22.425676]}, "NCH": {"state": "Assam", "name": "NAKACHARI", "zone": "NFR", "address": "Mariani, Assam", "coordinates": [94.3939129431, 26.7081333353]}, "APDJ": {"state": "West Bengal", "name": "ALIPUR DUAR JN", "zone": "NFR", "address": "03564-255091, West Bengal", "coordinates": [89.534048, 26.523279]}, "BRE": {"state": null, "name": "BHARWARI", "zone": null, "address": null, "coordinates": [81.4918665, 25.5591917]}, "JTK": {"state": "West Bengal", "name": "Jhitkia", "zone": "NFR", "address": "National Highway 34, West Bengal", "coordinates": [88.05297200000001, 25.626133]}, "MNJ": {"state": null, "name": "MANOHARGANJ", "zone": null, "address": null, "coordinates": [81.55907499999999, 25.524992]}, "SYWN": {"state": null, "name": "SAIYID SARAWAN", "zone": null, "address": null, "coordinates": [81.613788, 25.494982]}, "MRE": {"state": null, "name": "MANAURI", "zone": null, "address": null, "coordinates": [81.662491, 25.470171]}, "BMU": {"state": null, "name": "BAMHRAULI", "zone": null, "address": null, "coordinates": [81.741641, 25.44494]}, "SFG": {"state": null, "name": "SUBEDARGANJ", "zone": null, "address": null, "coordinates": [81.789897, 25.439879]}, "KLX": {"state": null, "name": "KOLAKALUR", "zone": null, "address": null, "coordinates": [80.627521, 16.295185999999998]}, "CLVR": {"state": null, "name": "CHILUVUR", "zone": null, "address": null, "coordinates": [80.61690800000001, 16.379558]}, "KVR": {"state": null, "name": "KOVVUR", "zone": null, "address": null, "coordinates": [81.726495, 17.007084]}, "GVN": {"state": null, "name": "GODAVARI", "zone": null, "address": null, "coordinates": [81.77083, 17.007707]}, "KJKD": {"state": null, "name": "KANJIKODE", "zone": null, "address": null, "coordinates": [76.75531600000001, 10.800919]}, "SNKR": {"state": "West Bengal", "name": "Sanka", "zone": "SER", "address": "Garh Dhrubeswar, West Bengal", "coordinates": [86.616164, 23.52693]}, "VNK": {"state": "Madhya Pradesh", "name": "Binaiki", "zone": "SECR", "address": "Binaiki Railway Station, Madhya Pradesh", "coordinates": [79.902424, 22.72003]}, "GCN": {"state": "West Bengal", "name": "Gocharan", "zone": "ER", "address": "Gocharan, West Bengal", "coordinates": [88.45836999999999, 22.277738]}, "SEY": {"state": "Madhya Pradesh", "name": "Seoni", "zone": "SECR", "address": "Seoni, Madhya Pradesh", "coordinates": [79.545769, 22.075431]}, "SDMD": {"state": "West Bengal", "name": "Sudamdih", "zone": "SER", "address": "Jairampur More to Baliapur, West Bengal", "coordinates": [86.44032, 23.654478]}, "PCLS": {"state": null, "name": "PCLS", "zone": null, "address": null, "coordinates": "NA"}, "BJU": {"state": null, "name": "BARAUNI JN", "zone": null, "address": null, "coordinates": [85.988748, 25.461768000000003]}, "DMO": {"state": null, "name": "DAMOH", "zone": null, "address": null, "coordinates": [79.432246, 23.836693]}, "ADD": {"state": null, "name": "ADAS ROAD", "zone": null, "address": null, "coordinates": [73.0346944543, 22.486628078200003]}, "CLC": {"state": "Gujarat", "name": "Chalala", "zone": "WR", "address": "Chalala, Gujarat", "coordinates": [71.16224249999999, 21.4155588]}, "RNO": {"state": null, "name": "RANOLI", "zone": null, "address": null, "coordinates": [73.1122662115, 22.405252095399998]}, "HP": {"state": "Rajasthan", "name": "HARIPUR", "zone": "NWR", "address": "Pali, Rajasthan", "coordinates": [74.024928, 26.012397]}, "KUGT": {"state": "Tripura", "name": "Kumarghat", "zone": "NFR", "address": "Kumarghat, Tripura", "coordinates": [92.0348331158, 24.1506303119]}, "AWB": {"state": "Maharashtra", "name": "AURANGABAD", "zone": "SCR", "address": "Aurangabad, Maharashtra", "coordinates": [75.31064599999999, 19.859276]}, "BNL": {"state": "Andhra Pradesh", "name": "BEVINAHALU", "zone": "SCR", "address": "Rayalaseema Region, Andhra Pradesh", "coordinates": [77.21298975, 15.16697376]}, "VMC": {"state": null, "name": "VMC", "zone": null, "address": null, "coordinates": "NA"}, "SMNH": {"state": "Gujarat", "name": "SOMNATH", "zone": "WR", "address": "Somnath, Gujarat", "coordinates": [70.408254, 20.896131999999998]}, "CUPJ": {"state": "Tamil Nadu", "name": "CUDDALORE PORT", "zone": "SR", "address": "Cuddalore Township, Tamil Nadu", "coordinates": [79.766287, 11.715119]}, "PLJ": {"state": null, "name": "PALEJ", "zone": null, "address": null, "coordinates": [73.072387, 21.921578]}, "GOLE": {"state": "Rajasthan", "name": "GOLE", "zone": "NWR", "address": "National Highway 112, Rajasthan", "coordinates": [72.00004, 25.891938]}, "BDX": {"state": null, "name": "BDX", "zone": null, "address": null, "coordinates": "NA"}, "TRO": {"state": null, "name": "TIRORA", "zone": null, "address": null, "coordinates": [79.91803499999999, 21.415039]}, "JMG": {"state": null, "name": "JAMGA", "zone": null, "address": null, "coordinates": [83.564842, 21.874971000000002]}, "JMSY": {"state": null, "name": "JMSY", "zone": null, "address": null, "coordinates": "NA"}, "AHLR": {"state": null, "name": "AHALYAPUR", "zone": null, "address": null, "coordinates": [83.824844, 26.468381]}, "TEL": {"state": null, "name": "TENALI JN", "zone": null, "address": null, "coordinates": [80.640413, 16.242409000000002]}, "TAT": {"state": "Andhra Pradesh", "name": "Tummanamgutta", "zone": "SCR", "address": "Chennai - Anantpur Rd, Andhra Pradesh", "coordinates": [78.37926300000001, 13.707414]}, "CU": {"state": null, "name": "CHAGALLU", "zone": null, "address": null, "coordinates": [81.690558, 16.965076999999997]}, "PSDA": {"state": null, "name": "PASIVEDALA", "zone": null, "address": null, "coordinates": [81.700939, 16.99331]}, "MBGA": {"state": "Rajasthan", "name": "Marwar Bagra", "zone": "NWR", "address": "SH 31, Rajasthan", "coordinates": [72.59376099999999, 25.208689]}, "JNE": {"state": "Rajasthan", "name": "JANIYANA", "zone": "NWR", "address": "State Highway 68, Rajasthan", "coordinates": [72.336284, 25.827638]}, "SMR": {"state": "Rajasthan", "name": "SAMDHARI JN", "zone": "NWR", "address": "Barmer, Rajasthan", "coordinates": [72.57300699999999, 25.837202]}, "SUT": {"state": "Rajasthan", "name": "SUTLANA", "zone": "NWR", "address": "Dundara, Rajasthan", "coordinates": [72.951414, 25.970783]}, "PBR": {"state": "Gujarat", "name": "PORBANDAR", "zone": "WR", "address": "Porbandar, Gujarat", "coordinates": [69.615506, 21.643597999999997]}, "CKVD": {"state": "Karnataka", "name": "Chikkandawadi", "zone": "SWR", "address": "Chikkandawadi, Karnataka", "coordinates": [76.2025684888, 14.137920273699999]}, "BHG": {"state": "Rajasthan", "name": "Bhaton Ki Gali", "zone": "NWR", "address": "Chomun, Rajasthan", "coordinates": [75.712919, 27.105646]}, "HMO": {"state": "Rajasthan", "name": "Hanumangarh Town", "zone": "NWR", "address": "Hanumangarh, Rajasthan", "coordinates": [74.33120188303292, 29.574220545495677]}, "SANR": {"state": null, "name": "SARDARNAGAR", "zone": null, "address": null, "coordinates": [83.494054, 26.700858999999998]}, "GRD": {"state": "Jharkhand", "name": "Giridih", "zone": "ER", "address": "Giridih, Jharkhand", "coordinates": [86.3146452, 24.182255899999998]}, "CC": {"state": null, "name": "CHAURI CHAURA", "zone": null, "address": null, "coordinates": [83.545894, 26.673882]}, "KMPT": {"state": null, "name": "KOMATIPALLI", "zone": null, "address": null, "coordinates": [79.5158922174, 18.023547297]}, "HSP": {"state": null, "name": "HASANPARTHI RD", "zone": null, "address": null, "coordinates": [79.50184999999999, 18.078262]}, "GGY": {"state": "Rajasthan", "name": "Gagariya", "zone": "NWR", "address": "State Highway 40, Rajasthan", "coordinates": [70.734877, 25.741083]}, "NNPR": {"state": null, "name": "NONAPAR", "zone": null, "address": null, "coordinates": [83.969786, 26.353209]}, "MW": {"state": null, "name": "MAIRWA", "zone": null, "address": null, "coordinates": [84.151979, 26.240309]}, "KUY": {"state": null, "name": "TIRUPPUR KULIPALAYAM", "zone": null, "address": null, "coordinates": [77.3893135876, 11.1440279246]}, "PLL": {"state": null, "name": "PARLI", "zone": null, "address": null, "coordinates": [76.559421, 10.800415]}, "AGTL": {"state": "Tripura", "name": "Agartala", "zone": "NFR", "address": "Agartala, Tripura", "coordinates": [91.278481, 23.792417]}, "MNY": {"state": null, "name": "MANKARAI", "zone": null, "address": null, "coordinates": [76.500232, 10.771526]}, "LDY": {"state": null, "name": "LAKKITI", "zone": null, "address": null, "coordinates": [76.434467, 10.753217]}, "PLPM": {"state": null, "name": "PALAPPURAM", "zone": null, "address": null, "coordinates": [76.398385813, 10.7525187905]}, "OTP": {"state": null, "name": "OTTAPPALAM", "zone": null, "address": null, "coordinates": [76.377993, 10.770046]}, "MNUR": {"state": null, "name": "MANNANUR", "zone": null, "address": null, "coordinates": [76.323555, 10.749322]}, "ZRDE": {"state": null, "name": "JIRADEI", "zone": null, "address": null, "coordinates": [84.256142, 26.220819]}, "SV": {"state": null, "name": "SIWAN JN", "zone": null, "address": null, "coordinates": [84.359267, 26.210724000000003]}, "PCK": {"state": null, "name": "PACHRUKHI", "zone": null, "address": null, "coordinates": [84.415667, 26.162627999999998]}, "DDA": {"state": null, "name": "DURAUNDHA JN", "zone": null, "address": null, "coordinates": [84.45894600000001, 26.086973]}, "CW": {"state": null, "name": "CHAINWA", "zone": null, "address": null, "coordinates": [84.49649600000001, 26.022117]}, "POK": {"state": "Rajasthan", "name": "POKRAN", "zone": "NWR", "address": "National Highway 15, Rajasthan", "coordinates": [71.923129, 26.930571]}, "OCH": {"state": "Rajasthan", "name": "ODHANIYA CHACHA", "zone": "NWR", "address": "National Highway 15, Rajasthan", "coordinates": [71.718687, 26.972848]}, "EKMA": {"state": null, "name": "EKMA", "zone": null, "address": null, "coordinates": [84.53637, 25.967099]}, "DDP": {"state": null, "name": "DAUDPUR", "zone": null, "address": null, "coordinates": [84.591425, 25.90709]}, "KPS": {"state": null, "name": "KOPA SAMHOTA", "zone": null, "address": null, "coordinates": [84.65281399999999, 25.851866]}, "BTHL": {"state": null, "name": "BITHAULI", "zone": null, "address": null, "coordinates": [85.29179, 25.817069]}, "GB": {"state": null, "name": "GAURI BAZAR", "zone": null, "address": null, "coordinates": [83.667801, 26.594934000000002]}, "BALR": {"state": null, "name": "BAITALPUR", "zone": null, "address": null, "coordinates": [83.7385572, 26.5526634]}, "DEOS": {"state": null, "name": "DEORIA SADAR", "zone": null, "address": null, "coordinates": [83.7819590961, 26.5076811676]}, "NRA": {"state": null, "name": "NUNKHAR", "zone": null, "address": null, "coordinates": [83.880179, 26.425483]}, "AGMN": {"state": null, "name": "Agomoni", "zone": null, "address": null, "coordinates": [89.786242, 26.225947]}, "BND": {"state": null, "name": "BHANDUP", "zone": null, "address": null, "coordinates": [72.93723505, 19.14200998]}, "ASR": {"state": null, "name": "AMRITSAR JN", "zone": null, "address": null, "coordinates": [74.858025, 31.631511999999997]}, "MUC": {"state": null, "name": "MULLURKARA", "zone": null, "address": null, "coordinates": [76.271415, 10.705843]}, "WKI": {"state": null, "name": "WADAKANCHERI", "zone": null, "address": null, "coordinates": [76.237041, 10.648956]}, "SOG": {"state": "Rajasthan", "name": "SURATGARH JN", "zone": "NWR", "address": "National Highway 15, Rajasthan", "coordinates": [73.90724800000001, 29.324152]}, "SNV": {"state": "Maharashtra", "name": "Sondad", "zone": "SECR", "address": "National Highway 6, Maharashtra", "coordinates": [80.094149, 21.079845]}, "QMRS": {"state": "Rajasthan", "name": "Kayamsar", "zone": "NWR", "address": "State Highway 41, Rajasthan", "coordinates": [75.000562, 28.125576]}, "AYB": {"state": "Karnataka", "name": "Aliyabad", "zone": "SWR", "address": "Bijapur, Karnataka", "coordinates": [75.758306, 16.878268000000002]}, "MBF": {"state": "Rajasthan", "name": "Munabao", "zone": "NWR", "address": "Barmer, Rajasthan", "coordinates": [70.276543, 25.742614]}, "CLDR": {"state": "Orissa", "name": "Chilikidara", "zone": "ECoR", "address": "Orissa, Orissa", "coordinates": [85.827112, 21.243022]}, "KLYT": {"state": "Rajasthan", "name": "Kolayat", "zone": "NWR", "address": "Kolayat, Rajasthan", "coordinates": [72.95507400000001, 27.835319]}, "CLD": {"state": "West Bengal", "name": "CHALSA JN", "zone": "NFR", "address": "Chalsa, West Bengal", "coordinates": [88.798213, 26.882215]}, "CRX": {"state": "West Bengal", "name": "CARRON", "zone": "NFR", "address": "National Highway 31C, West Bengal", "coordinates": [88.9704, 26.880279]}, "ETF": {"state": null, "name": "ITARSI F CABIN", "zone": null, "address": null, "coordinates": [77.774856, 22.61521]}, "CNPI": {"state": "Jharkhand", "name": "Chandanpahari", "zone": "ER", "address": "Chandanpahari, Jharkhand", "coordinates": [86.953082, 24.404224]}, "MIG": {"state": null, "name": "MIDGHAT", "zone": null, "address": null, "coordinates": [77.647526, 22.828141000000002]}, "BNU": {"state": null, "name": "BANDAKPUR", "zone": null, "address": null, "coordinates": [79.575956, 23.848205999999998]}, "COD": {"state": "Rajasthan", "name": "Chhota Gudha", "zone": "NWR", "address": "Ringas, Rajasthan", "coordinates": [75.599508, 27.293803]}, "CHQ": {"state": null, "name": "CHOKA", "zone": null, "address": null, "coordinates": [77.638968, 22.864326000000002]}, "MB": {"state": null, "name": "MORADABAD", "zone": null, "address": null, "coordinates": [78.765801, 28.831621000000002]}, "IRA": {"state": "Haryana", "name": "ISRANA", "zone": "NR", "address": "Israna, Haryana", "coordinates": [76.85285999999999, 29.291379]}, "KRCA": {"state": null, "name": "KARACHIYA YARD", "zone": null, "address": null, "coordinates": [73.132981, 22.380046]}, "BJW": {"state": null, "name": "BAJVA", "zone": null, "address": null, "coordinates": [73.1431251, 22.3662226]}, "CLN": {"state": "Tamil Nadu", "name": "KOLLIDAM", "zone": "SR", "address": "Vallampadugai, Tamil Nadu", "coordinates": [79.718347, 11.332713]}, "OSHI": {"state": null, "name": "OSHI", "zone": null, "address": null, "coordinates": "NA"}, "CNA": {"state": "Rajasthan", "name": "CHANDERIYA", "zone": "WR", "address": "Chittorgarh, Rajasthan", "coordinates": [74.629979, 24.939557999999998]}, "CRC": {"state": "Uttar Pradesh", "name": "CHARKHARI ROAD", "zone": "NCR", "address": "Charkhari, Uttar Pradesh", "coordinates": [79.74565299999999, 25.307555999999998]}, "BTT": {"state": null, "name": "BHATNI JN", "zone": null, "address": null, "coordinates": [83.934035, 26.381257]}, "CSZ": {"state": "West Bengal", "name": "Cossimbazar", "zone": "ER", "address": "Berhampore, West Bengal", "coordinates": [88.266903, 24.122264]}, "VRE": {"state": null, "name": "VAREDIYA", "zone": null, "address": null, "coordinates": [73.048979, 21.85838]}, "NIU": {"state": null, "name": "NABIPUR", "zone": null, "address": null, "coordinates": [73.030592, 21.807541]}, "KTTY": {"state": null, "name": "KTTY", "zone": null, "address": null, "coordinates": "NA"}, "CVJ": {"state": null, "name": "CHAVAJ", "zone": null, "address": null, "coordinates": [73.010489, 21.753134000000003]}, "AKV": {"state": null, "name": "ANKLESHWAR JN", "zone": null, "address": null, "coordinates": [73.000633, 21.623889]}, "CNE": {"state": "Assam", "name": "CHANDRANATHPUR", "zone": "NFR", "address": "National Highway 54, Assam", "coordinates": [92.71665800000001, 24.984962]}, "PAO": {"state": null, "name": "PANOLI", "zone": null, "address": null, "coordinates": [72.978371, 21.535197]}, "CNL": {"state": "Rajasthan", "name": "CHANDAWAL", "zone": "NWR", "address": "Pali, Rajasthan", "coordinates": [73.86881457700001, 25.946542716]}, "BFY": {"state": "Rajasthan", "name": "BHESANA", "zone": "NWR", "address": "Marwar, Rajasthan", "coordinates": [73.7180903, 25.82438]}, "HAT": {"state": null, "name": "HATHURAN", "zone": null, "address": null, "coordinates": [72.969512, 21.501091000000002]}, "COL": {"state": "Karnataka", "name": "Coromandel", "zone": "SWR", "address": "KGF, Karnataka", "coordinates": [78.257278, 12.97518]}, "KDSD": {"state": null, "name": "KUDSAD", "zone": null, "address": null, "coordinates": [72.91647999999999, 21.37682]}, "SYN": {"state": null, "name": "SAYAN", "zone": null, "address": null, "coordinates": [72.890287, 21.317203]}, "MQP": {"state": "Uttar Pradesh", "name": "Makrandpur", "zone": "NER", "address": "Aonla- Bareilly Link Rd, Uttar Pradesh", "coordinates": [79.290097, 28.213407]}, "GTX": {"state": null, "name": "GOTHANGAM", "zone": null, "address": null, "coordinates": [72.880104, 21.294043]}, "MGK": {"state": null, "name": "MULANGUNNATHUKAVU", "zone": null, "address": null, "coordinates": [76.207809, 10.596938999999999]}, "CNKP": {"state": "Delhi NCT", "name": "CHANAKYAPURI", "zone": "NR", "address": "Chanakyapuri, Delhi NCT", "coordinates": [77.172004, 28.591905]}, "URN": {"state": null, "name": "UTRAN", "zone": null, "address": null, "coordinates": [72.85479600000001, 21.232602]}, "ST": {"state": null, "name": "SURAT", "zone": null, "address": null, "coordinates": [72.840793, 21.206568]}, "UDN": {"state": null, "name": "UDHNA JN", "zone": null, "address": null, "coordinates": [72.851461, 21.171156]}, "VRU": {"state": null, "name": "VALIVERU", "zone": null, "address": null, "coordinates": [80.605456, 16.188934]}, "MRPL": {"state": null, "name": "MARAMPALLI", "zone": null, "address": null, "coordinates": [81.63387399999999, 16.843925]}, "NDD": {"state": null, "name": "NIDADAVOLU JN", "zone": null, "address": null, "coordinates": [81.67550399999999, 16.898297]}, "GDM": {"state": null, "name": "GUDMA", "zone": null, "address": null, "coordinates": [80.287678, 21.416128]}, "BEF": {"state": null, "name": "BHUPDEOPUR", "zone": null, "address": null, "coordinates": [83.25998102000001, 21.975035039999998]}, "RIG": {"state": null, "name": "RAIGARH", "zone": null, "address": null, "coordinates": [83.39067, 21.891288999999997]}, "KRL": {"state": null, "name": "KOTARLIA", "zone": null, "address": null, "coordinates": [83.482238, 21.883182]}, "CTND": {"state": "Tamil Nadu", "name": "Chettinad", "zone": "SR", "address": "Kanadukathan, Tamil Nadu", "coordinates": [78.775924, 10.160613]}, "SEPR": {"state": "Uttar Pradesh", "name": "SHERPUR", "zone": "NR", "address": "State Highway 51, Uttar Pradesh", "coordinates": [78.25287, 28.919358]}, "NVS": {"state": "Gujarat", "name": "NAVSARI", "zone": "WR", "address": "Navsari, Gujarat", "coordinates": [72.914294, 20.946851]}, "JBD": {"state": "Punjab", "name": "Jalalabad", "zone": "NR", "address": "Jalalabad, Punjab", "coordinates": [74.268446, 30.60775]}, "DDM": {"state": "West Bengal", "name": "DAM DIM", "zone": "NFR", "address": "National Highway 31, West Bengal", "coordinates": [88.67133299999999, 26.859243000000003]}, "COE": {"state": "Gujarat", "name": "CHITROD", "zone": "WR", "address": "Kutch, Gujarat", "coordinates": [70.655356, 23.417869]}, "COM": {"state": "Rajasthan", "name": "Chomun Samod", "zone": "NWR", "address": "Chomun, Rajasthan", "coordinates": [75.70272, 27.158223]}, "DKT": {"state": "Haryana", "name": "DHULKOT", "zone": "NR", "address": "Ambala City, Haryana", "coordinates": [76.78753499999999, 30.395686]}, "KUW": {"state": null, "name": "KANWAR", "zone": null, "address": null, "coordinates": [81.21464405030001, 25.7036520692]}, "CDMR": {"state": null, "name": "CHANDAULI MJHWR", "zone": null, "address": null, "coordinates": [83.267724, 25.261093]}, "IGPX": {"state": null, "name": "IGPX", "zone": null, "address": null, "coordinates": "NA"}, "KGA": {"state": null, "name": "KHAGA", "zone": null, "address": null, "coordinates": [81.102658, 25.761853]}, "KTCE": {"state": null, "name": "KATOGHAN", "zone": null, "address": null, "coordinates": [81.16560600000001, 25.730035]}, "ASCE": {"state": null, "name": "ATHSARAI", "zone": null, "address": null, "coordinates": [81.2620300824, 25.678728805000002]}, "CRLM": {"state": "Karnataka", "name": "Carmelaram", "zone": "SWR", "address": "Bengaluru, Karnataka", "coordinates": [77.706014, 12.907633]}, "CNR": {"state": "Goa", "name": "CHANDAR", "zone": "SWR", "address": "CHANRA (chandor), Goa", "coordinates": [74.047794, 15.264834]}, "CMDP": {"state": "Andhra Pradesh", "name": "Chimidipalli", "zone": "ECoR", "address": "Borra, Andhra Pradesh", "coordinates": [83.07686199999999, 18.262764]}, "BDL": {"state": null, "name": "VINDHYACHAL", "zone": null, "address": null, "coordinates": [82.5020212, 25.160771699999998]}, "TSA": {"state": null, "name": "TISUA", "zone": null, "address": null, "coordinates": [79.58628900000001, 28.136577]}, "TAS": {"state": "Gujarat", "name": "Thasra", "zone": "WR", "address": "National Highway 59, Gujarat", "coordinates": [73.221682, 22.797769]}, "GHT": {"state": null, "name": "GHAGHARA GHAT", "zone": null, "address": null, "coordinates": [81.5033135022, 27.1026834977]}, "BV": {"state": null, "name": "BABHNAN", "zone": null, "address": null, "coordinates": [82.500127, 26.938525000000002]}, "CLW": {"state": "Uttar Pradesh", "name": "Chilwariya", "zone": "NER", "address": "Bahraich, Uttar Pradesh", "coordinates": [81.69873199999999, 27.487001000000003]}, "OKAC": {"state": null, "name": "OKAC", "zone": null, "address": null, "coordinates": "NA"}, "GAUR": {"state": null, "name": "GAUR", "zone": null, "address": null, "coordinates": [82.56115799999999, 26.913411]}, "TH": {"state": null, "name": "TINICH", "zone": null, "address": null, "coordinates": [82.639707, 26.882281000000003]}, "BHTR": {"state": null, "name": "BHATPAR RANI", "zone": null, "address": null, "coordinates": [84.03310139999999, 26.3104766]}, "TUR": {"state": null, "name": "TURKI", "zone": null, "address": null, "coordinates": [85.354709, 26.034431]}, "RD": {"state": null, "name": "RAM DAYALU NAGAR", "zone": null, "address": null, "coordinates": [85.38359600000001, 26.097367]}, "BTO": {"state": null, "name": "BHITAURA", "zone": null, "address": null, "coordinates": [79.306506, 28.469954]}, "PKRA": {"state": null, "name": "PARSA KHERA", "zone": null, "address": null, "coordinates": [79.34185199999999, 28.433371]}, "CHTI": {"state": null, "name": "CHANETI", "zone": null, "address": null, "coordinates": [79.42916573, 28.3087958495]}, "BLPU": {"state": null, "name": "BILPUR", "zone": null, "address": null, "coordinates": [79.62578099999999, 28.083668]}, "MK": {"state": null, "name": "MIRANPUR KATRA", "zone": null, "address": null, "coordinates": [79.674809, 28.03708]}, "MILA": {"state": null, "name": "MILAKPUR HALT", "zone": null, "address": null, "coordinates": [79.71796182739999, 27.988261374]}, "TLH": {"state": null, "name": "TILHAR", "zone": null, "address": null, "coordinates": [79.741776, 27.972984]}, "CQL": {"state": "Kerala", "name": "CHIRAKKAL", "zone": "SR", "address": "Kannur district, Kerala", "coordinates": [75.353696, 11.911049]}, "PNQ": {"state": null, "name": "PUNKUNNAM", "zone": null, "address": null, "coordinates": [76.20943, 10.535053999999999]}, "TCR": {"state": null, "name": "THRISUR", "zone": null, "address": null, "coordinates": [76.207919, 10.514790000000001]}, "CMNR": {"state": "Karnataka", "name": "CHAMARAJANAGAR", "zone": "SWR", "address": "Chamarajnagar, Karnataka", "coordinates": [76.932807, 11.934891]}, "CMJ": {"state": "Karnataka", "name": "CHAMARAJAPURAM", "zone": "SWR", "address": "Mysore, Karnataka", "coordinates": [76.637861, 12.29844]}, "BKA": {"state": null, "name": "BARKHERA", "zone": null, "address": null, "coordinates": [77.649646, 22.917359]}, "ODG": {"state": null, "name": "OBAIDULLA GANJ", "zone": null, "address": null, "coordinates": [77.587299, 22.994912]}, "ACL": {"state": "Gujarat", "name": "ANCHELI", "zone": "WR", "address": "Navsari, Gujarat", "coordinates": [72.944978, 20.845167]}, "CVR": {"state": "Gujarat", "name": "CHORVAD ROAD", "zone": "WR", "address": "Gadu, Gujarat", "coordinates": [70.290734, 21.055196000000002]}, "CTH": {"state": "Maharashtra", "name": "CHIKALTHANA", "zone": "SCR", "address": "Aurangabad, Maharashtra", "coordinates": [75.402851, 19.859565]}, "BTKD": {"state": "Uttar Pradesh", "name": "BHARATKUND", "zone": "NR", "address": "Bikapur, Uttar Pradesh", "coordinates": [82.12739309999999, 26.6360965]}, "DHW": {"state": "Punjab", "name": "Dhariwal", "zone": "NR", "address": "Dhariwal, Punjab", "coordinates": [75.32156499999999, 31.949113]}, "SAI": {"state": null, "name": "SARAI", "zone": null, "address": null, "coordinates": [85.27660900000001, 25.779962]}, "CPE": {"state": "Orissa", "name": "Chandiposi", "zone": "SER", "address": "National Highway 23, Orissa", "coordinates": [84.915988, 22.068676999999997]}, "CRU": {"state": "Maharashtra", "name": "CHUDAWA", "zone": "SCR", "address": "Hingoli, Maharashtra", "coordinates": [77.1169303369, 19.1803282622]}, "DBB": {"state": "Assam", "name": "DHUBRI", "zone": "NFR", "address": "Dhubri, Assam", "coordinates": [89.977952, 26.023137000000002]}, "PNP": {"state": null, "name": "PANIPAT JN", "zone": null, "address": null, "coordinates": [76.96379300000001, 29.388948]}, "CPS": {"state": "Uttar Pradesh", "name": "CHANDPUR SIAU HALT", "zone": "NR", "address": "Chandpur, Uttar Pradesh", "coordinates": [78.27585499999999, 29.13201]}, "CX": {"state": "Gujarat", "name": "CHANOL", "zone": "WR", "address": "State Highway 25, Gujarat", "coordinates": [70.53884199999999, 22.427916]}, "CSR": {"state": "Bihar", "name": "CHAK SIKANDAR", "zone": "ECR", "address": "Chak Sikander, Bihar", "coordinates": [85.365246145, 25.6767202377]}, "CRQ": {"state": "Bihar", "name": "Charpokhari Halt", "zone": "ECR", "address": "Charpokhari, Bihar", "coordinates": [84.487603186, 25.3615157718]}, "VNA": {"state": null, "name": "VARANGAON", "zone": null, "address": null, "coordinates": [75.9006577881, 21.0097131944]}, "DAG": {"state": "Bihar", "name": "DHANG", "zone": "ECR", "address": "Bhang, Bihar", "coordinates": [85.353298, 26.7174]}, "CRW": {"state": "Haryana", "name": "Charaud", "zone": "NWR", "address": "National Highway 65, Haryana", "coordinates": [75.6466632, 29.0094584]}, "BTL": {"state": null, "name": "BORTALAO", "zone": null, "address": null, "coordinates": [80.626207, 21.218301]}, "KHS": {"state": null, "name": "KHARSIA", "zone": null, "address": null, "coordinates": [83.102414, 21.99178]}, "ROB": {"state": null, "name": "ROBERTSON", "zone": null, "address": null, "coordinates": [83.182508, 21.988744]}, "CPK": {"state": "Assam", "name": "CHAPARMUKH JN", "zone": "NFR", "address": "Chaparmukh, Assam", "coordinates": [92.511718, 26.202272]}, "CTW": {"state": "Punjab", "name": "Chhintanwala", "zone": "NR", "address": "Sherpur Sodhian Link Rd, Punjab", "coordinates": [76.014229, 30.365958000000003]}, "CTA": {"state": "Karnataka", "name": "Chitradurg", "zone": "SWR", "address": "Chitradurga, Karnataka", "coordinates": [76.386431, 14.231154]}, "AAV": {"state": "Gujarat", "name": "Ambav", "zone": "WR", "address": "Ambav, Gujarat", "coordinates": "NA"}, "MDKU": {"state": null, "name": "MODUKURU", "zone": null, "address": null, "coordinates": [80.58380799999999, 16.124988000000002]}, "TSR": {"state": null, "name": "TSUNDURU", "zone": null, "address": null, "coordinates": [80.58648699999999, 16.157497]}, "NBM": {"state": null, "name": "NAVABPALEM", "zone": null, "address": null, "coordinates": [81.606702, 16.831606]}, "NMBR": {"state": null, "name": "N MAYURBHANJ ROAD", "zone": null, "address": null, "coordinates": [87.038724, 21.666901]}, "BTS": {"state": null, "name": "BASTA", "zone": null, "address": null, "coordinates": [87.0637831, 21.7029241]}, "CTD": {"state": "Gujarat", "name": "Chhota Udepur", "zone": "WR", "address": "Vadodara, Gujarat", "coordinates": [74.014286, 22.314788]}, "DBY": {"state": "Assam", "name": "Digboi", "zone": "NFR", "address": "Tinsukia, Assam", "coordinates": [95.61698200000001, 27.383483]}, "CWI": {"state": "Maharashtra", "name": "CHONDI", "zone": "SCR", "address": "Parbhani, Maharashtra", "coordinates": [77.1556666229, 19.430619765]}, "CSDR": {"state": "Karnataka", "name": "CHANNASANDRA", "zone": "SWR", "address": "Bengaluru, Karnataka", "coordinates": [77.6629705685, 13.010940720799999]}, "PGT": {"state": null, "name": "PALAKKAD", "zone": null, "address": null, "coordinates": [76.641926, 10.802091]}, "MNHA": {"state": "Rajasthan", "name": "Mindha", "zone": "NWR", "address": "Minda to Mandha Bhimsingh Rd, Rajasthan", "coordinates": [75.33241, 27.112061]}, "DBO": {"state": "Gujarat", "name": "DABHODA", "zone": "WR", "address": "Dabhoda, Gujarat", "coordinates": [72.748038, 23.168331000000002]}, "DABN": {"state": "Rajasthan", "name": "DHABAN", "zone": "NWR", "address": "Sangaria, Rajasthan", "coordinates": [74.54288000000001, 29.859997]}, "DBI": {"state": "Rajasthan", "name": "DABLI RATHAN", "zone": "NWR", "address": "Hanumangarh, Rajasthan", "coordinates": [74.19093000000001, 29.542416]}, "SID": {"state": "Gujarat", "name": "SIDDHPUR", "zone": "WR", "address": "State Highway 41, Gujarat", "coordinates": [72.367959, 23.918067]}, "ARGD": {"state": "", "name": "ARIGADA", "zone": "ECR", "address": "", "coordinates": [85.466475, 23.643461000000002]}, "CTJ": {"state": "Madhya Pradesh", "name": "CHHATAINI", "zone": "WCR", "address": "Awasthi Sadan Rd, Madhya Pradesh", "coordinates": [81.287323, 23.994088]}, "KTKD": {"state": "Madhya Pradesh", "name": "KATANGI KHURD", "zone": "WCR", "address": "State Highway 10, Madhya Pradesh", "coordinates": [80.48673398129999, 23.7758696073]}, "CRL": {"state": "Madhya Pradesh", "name": "Choral", "zone": "WR", "address": "SH 27, Madhya Pradesh", "coordinates": [75.94413499999999, 22.450677]}, "ABSA": {"state": "Tripura", "name": "Ambassa", "zone": "NFR", "address": "Ambassa, Tripura", "coordinates": [91.860783, 23.930507]}, "NVP": {"state": null, "name": "Navalpura", "zone": null, "address": null, "coordinates": [73.19955399999999, 23.289155]}, "DBKA": {"state": "Madhya Pradesh", "name": "Dabka", "zone": "SCR", "address": "Amlakhurd, Madhya Pradesh", "coordinates": [76.720809, 21.361353]}, "CQR": {"state": "West Bengal", "name": "Champapukur", "zone": "ER", "address": "Kholapota, West Bengal", "coordinates": [88.80796000000001, 22.656633999999997]}, "NDAZ": {"state": null, "name": "NAYA AZADPUR", "zone": null, "address": null, "coordinates": [77.166876, 28.714564]}, "ANDI": {"state": null, "name": "ADARSH NAGAR DELHI", "zone": null, "address": null, "coordinates": [77.16670699999999, 28.714205]}, "CUR": {"state": "Rajasthan", "name": "Churu", "zone": "NWR", "address": "Churu, Rajasthan", "coordinates": [74.966203, 28.288281]}, "BHD": {"state": null, "name": "BADLI", "zone": null, "address": null, "coordinates": [77.1377425, 28.746799999999997]}, "KHKN": {"state": null, "name": "KHERA KALAN", "zone": null, "address": null, "coordinates": [77.115838, 28.769717999999997]}, "HUK": {"state": null, "name": "HOLAMBI KALAN", "zone": null, "address": null, "coordinates": [77.102334, 28.801187]}, "NUR": {"state": null, "name": "NARELA", "zone": null, "address": null, "coordinates": [77.085727, 28.846886]}, "CWA": {"state": "Madhya Pradesh", "name": "Chhindwara Junction", "zone": "SECR", "address": "Chhindwara, Madhya Pradesh", "coordinates": [78.953212, 22.058201]}, "RDDE": {"state": null, "name": "RATHDHANA", "zone": null, "address": null, "coordinates": [77.05914800000001, 28.904132]}, "CTPE": {"state": "Kerala", "name": "Chandanattop Halt", "zone": "SR", "address": "Kilikkollur, Kerala", "coordinates": [76.64532, 8.932478000000001]}, "HNN": {"state": null, "name": "HARANA KALAN", "zone": null, "address": null, "coordinates": [77.039135, 28.945425]}, "SNP": {"state": null, "name": "SONIPAT", "zone": null, "address": null, "coordinates": [77.017343, 28.989423000000002]}, "SLKN": {"state": null, "name": "SANDAL KALAN", "zone": null, "address": null, "coordinates": [77.012589, 29.063432000000002]}, "RUG": {"state": null, "name": "RAJLU GARHI", "zone": null, "address": null, "coordinates": [77.012109, 29.090744]}, "GNU": {"state": null, "name": "GANAUR", "zone": null, "address": null, "coordinates": [77.01074999999999, 29.130776]}, "BDMJ": {"state": null, "name": "BHODWAL MAJRI", "zone": null, "address": null, "coordinates": [77.0082364, 29.1852092]}, "SMK": {"state": null, "name": "SAMALKHA", "zone": null, "address": null, "coordinates": [77.003034, 29.240172]}, "DWNA": {"state": null, "name": "DIWANA", "zone": null, "address": null, "coordinates": [76.980194, 29.318564]}, "BBDE": {"state": null, "name": "BABARPUR", "zone": null, "address": null, "coordinates": [76.966178, 29.449652]}, "KFU": {"state": null, "name": "KOHAND", "zone": null, "address": null, "coordinates": [76.968758, 29.494782]}, "GRA": {"state": null, "name": "GHARAUNDA", "zone": null, "address": null, "coordinates": [76.96575000000001, 29.541636]}, "BZJT": {"state": null, "name": "BAZIDA JATAN", "zone": null, "address": null, "coordinates": [76.965812, 29.613391]}, "KUN": {"state": null, "name": "KARNAL", "zone": null, "address": null, "coordinates": [76.969821, 29.694566000000002]}, "BZK": {"state": null, "name": "BHAINI KHURD", "zone": null, "address": null, "coordinates": [76.95536200000001, 29.751544]}, "TRR": {"state": null, "name": "TARAORI", "zone": null, "address": null, "coordinates": [76.93858, 29.797906]}, "NLKR": {"state": null, "name": "NILOKHERI", "zone": null, "address": null, "coordinates": [76.925491, 29.831492]}, "KKDE": {"state": null, "name": "KURUKSHETRA JN", "zone": null, "address": null, "coordinates": [76.852795, 29.969440000000002]}, "DAVM": {"state": "Kerala", "name": "DHANUVACHAPURAM", "zone": "SR", "address": "Dhanuvachapuram, Kerala", "coordinates": [77.124352, 8.378802]}, "CTS": {"state": "Orissa", "name": "CHATTRIPUT", "zone": "ECoR", "address": "Jeypore, Orissa", "coordinates": [82.590027, 18.922722]}, "DAVJ": {"state": "Punjab", "name": "D.A.V.C.H. JALANDHAR", "zone": "NR", "address": "Jalandhar, Punjab", "coordinates": [75.56132, 31.346977000000003]}, "DLPI": {"state": "Delhi NCT", "name": "INDRAPURI", "zone": "NR", "address": "Delhi Cantonment, Delhi NCT", "coordinates": [77.14358825779999, 28.628342466499998]}, "GRG": {"state": "Madhya Pradesh", "name": "Guwarighat", "zone": "SECR", "address": "Gwarighat, Madhya Pradesh", "coordinates": [79.92761300000001, 23.110295]}, "DSJ": {"state": "Delhi NCT", "name": "DELHI SAFDARJUNG", "zone": "NR", "address": "Netaji Nagar, Delhi NCT", "coordinates": [77.186969, 28.582121]}, "DHRN": {"state": "Haryana", "name": "DHURANA", "zone": "NR", "address": "Panipat, Haryana", "coordinates": [76.803295, 29.253606]}, "DUK": {"state": "Rajasthan", "name": "DUDIA", "zone": "NWR", "address": "Dundara, Rajasthan", "coordinates": [72.902042, 25.934458]}, "DAJ": {"state": "Karnataka", "name": "DUROJI", "zone": "SWR", "address": "Bellary, Karnataka", "coordinates": [76.70013, 15.227107]}, "BTPH": {"state": null, "name": "CHAKIA THERMAL HALT", "zone": null, "address": null, "coordinates": [86.01624276369999, 25.4012639369]}, "JDDA": {"state": null, "name": "JATHA", "zone": null, "address": null, "coordinates": [82.875333703, 22.0159803866]}, "JDI": {"state": null, "name": "JHARRADIH", "zone": null, "address": null, "coordinates": [83.050747, 21.999876]}, "DKO": {"state": "Tamil Nadu", "name": "Devakottai Road", "zone": "SR", "address": "NH 210, Tamil Nadu", "coordinates": [78.761747, 10.037610999999998]}, "DIB": {"state": "Uttar Pradesh", "name": "DIBAI", "zone": "NR", "address": "Dibai, Uttar Pradesh", "coordinates": [78.303084, 28.19378]}, "CNJO": {"state": null, "name": "JUHI OUTER CABIN", "zone": null, "address": null, "coordinates": [80.3239098425, 26.4531901925]}, "LMA": {"state": "Rajasthan", "name": "LAMBIYA", "zone": "NWR", "address": "National Highway 79, Rajasthan", "coordinates": [74.58561499999999, 25.578333999999998]}, "DBLG": {"state": null, "name": "DBLG", "zone": null, "address": null, "coordinates": "NA"}, "DOHM": {"state": "Rajasthan", "name": "Devgarh Madriya", "zone": "NWR", "address": "Devgarh, Rajasthan", "coordinates": [73.855552, 25.610206]}, "NHLG": {"state": null, "name": "NHLG", "zone": null, "address": null, "coordinates": "NA"}, "DYE": {"state": "Andhra Pradesh", "name": "DAYANAND NAGAR", "zone": "SCR", "address": "Secunderabad, Andhra Pradesh", "coordinates": [78.53134999999999, 17.456247]}, "DBV": {"state": "Andhra Pradesh", "name": "DABILPUR", "zone": "SCR", "address": "Rangareddy, Andhra Pradesh", "coordinates": [78.470315, 17.674226]}, "JGLP": {"state": null, "name": "JGLP", "zone": null, "address": null, "coordinates": "NA"}, "BGZ": {"state": "Haryana", "name": "BAHADURGARH", "zone": "NR", "address": "Bahadurgarh, Haryana", "coordinates": [76.930886, 28.700863000000002]}, "PNSR": {"state": null, "name": "PNSR", "zone": null, "address": null, "coordinates": "NA"}, "DME": {"state": "Gujarat", "name": "DAMNAGAR", "zone": "WR", "address": "Damnagar, Gujarat", "coordinates": [71.509053, 21.688346]}, "AG": {"state": "West Bengal", "name": "Aranghata", "zone": "ER", "address": "Haranath Para Ln, West Bengal", "coordinates": [88.613551, 23.242037]}, "RLG": {"state": "Andhra Pradesh", "name": "RELANGI", "zone": "SCR", "address": "Relangi, Andhra Pradesh", "coordinates": [81.64411, 16.709921]}, "CCAB": {"state": null, "name": "BMY C CABIN", "zone": null, "address": null, "coordinates": [81.44306300000001, 21.209789]}, "DNDI": {"state": "Maharashtra", "name": "DHONDI", "zone": "SCR", "address": "State Highway 148, Maharashtra", "coordinates": [76.736112, 19.106268]}, "NDO": {"state": null, "name": "NIDUBROLU", "zone": null, "address": null, "coordinates": [80.557243, 16.067904]}, "FKA": {"state": "Punjab", "name": "Fazilka", "zone": "NR", "address": "Fazilka, Punjab", "coordinates": [74.02541699999999, 30.408641]}, "TDD": {"state": null, "name": "TADEPALLIGUDEM", "zone": null, "address": null, "coordinates": [81.526314, 16.809960999999998]}, "PTPU": {"state": null, "name": "PRATTIAPADU", "zone": null, "address": null, "coordinates": [81.581431, 16.820864999999998]}, "BDHT": {"state": "Madhya Pradesh", "name": "Bardi Halt", "zone": "SECR", "address": "State Highway 19, Madhya Pradesh", "coordinates": [78.822411, 21.621177]}, "DJL": {"state": "Karnataka", "name": "Dodajala Lake", "zone": "SWR", "address": "Hosur Road., Karnataka", "coordinates": [77.652122, 13.183156]}, "DIU": {"state": "Assam", "name": "Dhing", "zone": "NFR", "address": "National Highway 37, Assam", "coordinates": [92.45086500000001, 26.453101]}, "DGQ": {"state": "Gujarat", "name": "Dugdol", "zone": "NWR", "address": "Dhanera, Gujarat", "coordinates": [72.096828, 24.631708]}, "DAU": {"state": "Punjab", "name": "Dagru", "zone": "NR", "address": "Dagru, Punjab", "coordinates": [75.047442, 30.834858]}, "GWH": {"state": null, "name": "GHOSHAWAR", "zone": null, "address": null, "coordinates": [85.24335073670001, 25.737421135399998]}, "HJP": {"state": null, "name": "HAJIPUR JN", "zone": null, "address": null, "coordinates": [85.2155, 25.702909000000002]}, "ENBG": {"state": null, "name": "ENBG", "zone": null, "address": null, "coordinates": "NA"}, "PUK": {"state": null, "name": "PUDUKAD", "zone": null, "address": null, "coordinates": [76.26070700000001, 10.420507]}, "NYI": {"state": null, "name": "NELLAYI", "zone": null, "address": null, "coordinates": [76.275994, 10.392415000000002]}, "UKL": {"state": null, "name": "UTTUKULI", "zone": null, "address": null, "coordinates": [77.448615, 11.156494]}, "TUP": {"state": null, "name": "TIRUPPUR", "zone": null, "address": null, "coordinates": [77.341247, 11.108906]}, "SNO": {"state": null, "name": "SOMANUR", "zone": null, "address": null, "coordinates": [77.18638, 11.087247]}, "SUU": {"state": null, "name": "SULUR ROAD", "zone": null, "address": null, "coordinates": [77.11729, 11.049634]}, "IGU": {"state": null, "name": "IRUGUR", "zone": null, "address": null, "coordinates": [77.06913399999999, 11.017199]}, "SHI": {"state": null, "name": "SINGANALLUR", "zone": null, "address": null, "coordinates": [77.03945900000001, 11.012921]}, "PLMD": {"state": null, "name": "PILAMEDU", "zone": null, "address": null, "coordinates": [76.999566, 11.033241]}, "CBE": {"state": null, "name": "COIMBATORE JN", "zone": null, "address": null, "coordinates": [76.966298, 10.997639]}, "PTJ": {"state": null, "name": "PODANUR JN", "zone": null, "address": null, "coordinates": [76.990125, 10.965425]}, "MDKI": {"state": null, "name": "MADUKARAI", "zone": null, "address": null, "coordinates": [76.94295000000001, 10.900858]}, "IJK": {"state": null, "name": "IRINJALAKUDA", "zone": null, "address": null, "coordinates": [76.280924, 10.339456]}, "CKI": {"state": null, "name": "CHALAKUDI", "zone": null, "address": null, "coordinates": [76.3218076, 10.3017975]}, "DINR": {"state": null, "name": "DIVINE NAGAR", "zone": null, "address": null, "coordinates": [76.3363143628, 10.2853993721]}, "KRAN": {"state": null, "name": "KORATTI ANGADI", "zone": null, "address": null, "coordinates": [76.355901, 10.260123]}, "KUC": {"state": null, "name": "KARUKKUTTY", "zone": null, "address": null, "coordinates": [76.373077, 10.225757]}, "AFK": {"state": null, "name": "ANGAMALI", "zone": null, "address": null, "coordinates": [76.37786, 10.183676]}, "CWR": {"state": null, "name": "CHOVVARA", "zone": null, "address": null, "coordinates": [76.37218899999999, 10.133064]}, "DJ": {"state": "West Bengal", "name": "Darjeeling", "zone": "NFR", "address": "Darjeeling, West Bengal", "coordinates": [88.263326, 27.038151]}, "AWY": {"state": null, "name": "ALUVA", "zone": null, "address": null, "coordinates": [76.356508, 10.108163]}, "KLMR": {"state": null, "name": "KALAMASSERY", "zone": null, "address": null, "coordinates": [76.32695600000001, 10.061818]}, "IPL": {"state": null, "name": "EDAPPALLY", "zone": null, "address": null, "coordinates": [76.298271, 10.034338]}, "ERN": {"state": null, "name": "ERNAKULAM TOWN", "zone": null, "address": null, "coordinates": [76.2861, 9.991582000000001]}, "ETMD": {"state": null, "name": "ETTIMADAI", "zone": null, "address": null, "coordinates": [76.89715500000001, 10.898788]}, "WRA": {"state": null, "name": "WALAYAR", "zone": null, "address": null, "coordinates": [76.8376135147, 10.8471810329]}, "DBN": {"state": "Punjab", "name": "Dhablan", "zone": "NR", "address": "Gurudwara Ishar Darbar Rd, Punjab", "coordinates": [76.276917865, 30.3379133215]}, "DBF": {"state": "Chhattisgarh", "name": "Dabpal", "zone": "?", "address": "Dabpal, Chhattisgarh", "coordinates": [81.488923, 18.927979999999998]}, "DBZ": {"state": "Assam", "name": "Dhing Bazar", "zone": "NFR", "address": "Mathaouri Rd, Assam", "coordinates": [92.481039, 26.455873]}, "CLMD": {"state": null, "name": "CHULLIMADA", "zone": null, "address": null, "coordinates": [76.801793, 10.837164999999999]}, "KTKU": {"state": null, "name": "KOTTEKAD", "zone": null, "address": null, "coordinates": [76.693457, 10.815731]}, "DLC": {"state": "Rajasthan", "name": "DALMERA", "zone": "NWR", "address": "Bikaner, Rajasthan", "coordinates": [73.65658, 28.417832]}, "TNU": {"state": null, "name": "TIRUNETTUR", "zone": null, "address": null, "coordinates": [76.30765699999999, 9.933729]}, "KUMM": {"state": null, "name": "KUMBALAM", "zone": null, "address": null, "coordinates": [76.3116, 9.906723]}, "AROR": {"state": null, "name": "AROOR HALT", "zone": null, "address": null, "coordinates": [76.30283299999999, 9.8791031]}, "EZP": {"state": null, "name": "EZHUPPUNNA", "zone": null, "address": null, "coordinates": [76.302391, 9.820288000000001]}, "TUVR": {"state": null, "name": "TURAVUR", "zone": null, "address": null, "coordinates": [76.309979, 9.772809]}, "ERSC": {"state": null, "name": "ERNAKULAM JN. C", "zone": null, "address": null, "coordinates": [76.28985899999999, 9.978060000000001]}, "DIR": {"state": "Orissa", "name": "DHANAPUR ORISSA", "zone": "ECoR", "address": "National Highway 43, Orissa", "coordinates": [82.50739300000001, 18.945173]}, "DRN": {"state": "Uttar Pradesh", "name": "DEORANIAN", "zone": "NER", "address": "SH 37, Uttar Pradesh", "coordinates": [79.476473, 28.64478]}, "BGS": {"state": "Bihar", "name": "BEGU SARAI", "zone": "ECR", "address": "06243-222853, Bihar", "coordinates": [86.134476, 25.425296]}, "BQQ": {"state": null, "name": "BAKHLETA", "zone": null, "address": null, "coordinates": [79.96972000000001, 23.846381]}, "GBP": {"state": "Rajasthan", "name": "GULABPURA", "zone": "NWR", "address": "Gulabpura, Rajasthan", "coordinates": [74.65595449829999, 25.9027951891]}, "REI": {"state": null, "name": "RITHI", "zone": null, "address": null, "coordinates": [80.140267, 23.904168]}, "MBWC": {"state": null, "name": "MORADABAD WEST", "zone": null, "address": null, "coordinates": [78.7596338837, 28.83865785]}, "HRH": {"state": null, "name": "HARTHALA", "zone": null, "address": null, "coordinates": [78.73559542849999, 28.8719872056]}, "GOA": {"state": "Madhya Pradesh", "name": "GOHAD ROAD", "zone": "NCR", "address": "Bhind, Madhya Pradesh", "coordinates": [78.439153, 26.480421000000003]}, "DHNR": {"state": "Maharashtra", "name": "DHANORA DECCAN", "zone": "SCR", "address": "Kinwat, Maharashtra", "coordinates": [78.13275402709999, 19.465517438899997]}, "ALD": {"state": null, "name": "ALLAHABAD JN", "zone": null, "address": null, "coordinates": [81.828816, 25.446241]}, "ETAH": {"state": "Uttar Pradesh", "name": "Etah", "zone": "NCR", "address": "Etah, Uttar Pradesh", "coordinates": [78.65391899999999, 27.571173]}, "GG": {"state": "Gujarat", "name": "GANDHIGRAM", "zone": "WR", "address": "Ahmedabad, Gujarat", "coordinates": [72.568831, 23.02676]}, "BSL": {"state": null, "name": "BHUSAVAL JN", "zone": null, "address": null, "coordinates": [75.78867170000001, 21.0472812]}, "KOPR": {"state": null, "name": "KOPAR ROAD", "zone": null, "address": null, "coordinates": [73.077841, 19.211345]}, "GGLE": {"state": "West Bengal", "name": "GANGATIKURI", "zone": "ER", "address": "State Highway 6, West Bengal", "coordinates": [88.087286, 23.71822]}, "KWD": {"state": null, "name": "KARWANDIA", "zone": null, "address": null, "coordinates": [84.084599, 24.953195]}, "GDD": {"state": "Rajasthan", "name": "Gadra Road", "zone": "NWR", "address": "Gadara, Rajasthan", "coordinates": [70.64304, 25.743851]}, "SSM": {"state": null, "name": "SASARAM", "zone": null, "address": null, "coordinates": [84.019423, 24.955926]}, "DTAE": {"state": "West Bengal", "name": "DHATRIGRAM", "zone": "ER", "address": "Dhatrigram, West Bengal", "coordinates": [88.31182199999999, 23.277796]}, "SLOR": {"state": null, "name": "SELOO ROAD", "zone": null, "address": null, "coordinates": [78.71490899999999, 20.776649999999997]}, "SNI": {"state": null, "name": "SINDI", "zone": null, "address": null, "coordinates": [78.883342, 20.816446]}, "DNUA": {"state": "Gujarat", "name": "Dhansura", "zone": "WR", "address": "State Highway 68, Gujarat", "coordinates": [73.19870999999999, 23.351916]}, "SGRD": {"state": null, "name": "SULGARE", "zone": null, "address": null, "coordinates": [82.743775, 22.019979]}, "BUA": {"state": null, "name": "BARADWAR", "zone": null, "address": null, "coordinates": [82.813724, 22.011725000000002]}, "SKT": {"state": null, "name": "SAKTI", "zone": null, "address": null, "coordinates": [82.956526, 22.011785000000003]}, "EDU": {"state": "Tamil Nadu", "name": "ERIODU", "zone": "SR", "address": "State Highway 74, Tamil Nadu", "coordinates": [78.05712899000001, 10.515627989999999]}, "SUJ": {"state": null, "name": "SARJU", "zone": null, "address": null, "coordinates": [81.648076, 27.111885]}, "GDN": {"state": "Tamil Nadu", "name": "GANGAIKONDAN", "zone": "SR", "address": "Thoothukudi, Tamil Nadu", "coordinates": [77.786203, 8.830736]}, "LDR": {"state": null, "name": "LANDAURA", "zone": null, "address": null, "coordinates": [77.941557, 29.814493]}, "DUN": {"state": null, "name": "DUGANPUR", "zone": null, "address": null, "coordinates": [79.13019, 28.658317]}, "CBJ": {"state": null, "name": "CLUTTER BUCK GANJ", "zone": null, "address": null, "coordinates": [79.371946, 28.396895]}, "BE": {"state": null, "name": "BAREILLY", "zone": null, "address": null, "coordinates": [79.4108444, 28.337154299999998]}, "NHGJ": {"state": null, "name": "NHGJ", "zone": null, "address": null, "coordinates": "NA"}, "DTC": {"state": "Assam", "name": "DITOKCHERRA", "zone": "NFR", "address": "North Cachar Hills, Assam", "coordinates": [92.798715, 25.090538]}, "BPG": {"state": "Assam", "name": "BADURPUR GHAT", "zone": "NFR", "address": "National Highway 53, Assam", "coordinates": [92.581099, 24.872902]}, "GIW": {"state": "Rajasthan", "name": "Girdharpur", "zone": "NCR", "address": "State Highway 6, Rajasthan", "coordinates": [76.794583, 25.845508]}, "RYS": {"state": null, "name": "RASURIYA", "zone": null, "address": null, "coordinates": [79.47445900000001, 28.26396]}, "NYO": {"state": null, "name": "NAYAGAON", "zone": null, "address": null, "coordinates": [85.099366, 25.763263]}, "PMU": {"state": null, "name": "PARMANANDPUR", "zone": null, "address": null, "coordinates": [85.133951, 25.741290999999997]}, "GIR": {"state": "Uttar Pradesh", "name": "Gainsari Junction", "zone": "NER", "address": "Balrampur, Uttar Pradesh", "coordinates": [82.5441789069, 27.526839296800002]}, "BPP": {"state": null, "name": "BAPATLA", "zone": null, "address": null, "coordinates": [80.46842480000001, 15.9086144]}, "APL": {"state": null, "name": "APPIKATLA", "zone": null, "address": null, "coordinates": [80.514466, 15.970371]}, "MCVM": {"state": null, "name": "MACHAVARAM", "zone": null, "address": null, "coordinates": [80.54154100000001, 16.025343]}, "CEL": {"state": null, "name": "CHEBROL", "zone": null, "address": null, "coordinates": [81.396533, 16.819948]}, "GGH": {"state": "Bihar", "name": "Ghogardiha", "zone": "ECR", "address": "Ghoghardiha, Bihar", "coordinates": [86.468503, 26.282768]}, "BPY": {"state": null, "name": "BADAMPUDI", "zone": null, "address": null, "coordinates": [81.473751, 16.828104]}, "ARD": {"state": null, "name": "AMARDA ROAD", "zone": null, "address": null, "coordinates": [87.102374, 21.734258]}, "PY": {"state": null, "name": "PERUNDURAI", "zone": null, "address": null, "coordinates": [77.628672, 11.25334]}, "FSR": {"state": "Punjab", "name": "FAQARSAR", "zone": "NR", "address": "Fakarsar, Punjab", "coordinates": [74.57257200000001, 30.189431000000003]}, "CFG": {"state": "Assam", "name": "CHAKITING", "zone": "NFR", "address": "Dhodar Ali, Assam", "coordinates": [94.0956546234, 26.5616754046]}, "IGR": {"state": null, "name": "INGUR", "zone": null, "address": null, "coordinates": [77.587299, 11.22501]}, "VZ": {"state": null, "name": "VIJAYAMANGALAM", "zone": null, "address": null, "coordinates": [77.522231, 11.195525]}, "DLA": {"state": null, "name": "DOULTA", "zone": null, "address": null, "coordinates": [78.42932499999999, 24.998509000000002]}, "TBT": {"state": null, "name": "TALBAHAT", "zone": null, "address": null, "coordinates": [78.414552, 25.039255]}, "MZX": {"state": null, "name": "MATATILA", "zone": null, "address": null, "coordinates": [78.40284000000001, 25.0851]}, "BZY": {"state": null, "name": "BASAI", "zone": null, "address": null, "coordinates": [78.394254, 25.142923]}, "BAB": {"state": null, "name": "BABINA", "zone": null, "address": null, "coordinates": [78.451748, 25.237832]}, "KHJ": {"state": null, "name": "KHAJRAHA", "zone": null, "address": null, "coordinates": [78.478365, 25.304157999999997]}, "BJI": {"state": null, "name": "BIJAULI", "zone": null, "address": null, "coordinates": [78.51774610000001, 25.3764678]}, "JHSA": {"state": null, "name": "JHANSI A CABIN", "zone": null, "address": null, "coordinates": [78.545787, 25.41949]}, "JHS": {"state": null, "name": "JHANSI JN", "zone": null, "address": null, "coordinates": [78.55298499999999, 25.443585]}, "KRQ": {"state": null, "name": "KARARI", "zone": null, "address": null, "coordinates": [78.509084, 25.530800000000003]}, "DAA": {"state": null, "name": "DATIA", "zone": null, "address": null, "coordinates": [78.456356, 25.641070000000003]}, "SOR": {"state": null, "name": "SONAGIR", "zone": null, "address": null, "coordinates": [78.409099, 25.730668]}, "KTRA": {"state": null, "name": "KOTRA", "zone": null, "address": null, "coordinates": [78.381661, 25.811253999999998]}, "DBA": {"state": null, "name": "DABRA", "zone": null, "address": null, "coordinates": [78.331015, 25.881197]}, "SMTL": {"state": null, "name": "SIMARIATAL", "zone": null, "address": null, "coordinates": [78.3042595734, 25.9219956094]}, "AEH": {"state": null, "name": "ANANT PAITH", "zone": null, "address": null, "coordinates": [78.2761320917, 25.955389501299997]}, "FRH": {"state": "Uttar Pradesh", "name": "Farhatnagar", "zone": "NR", "address": "Farhatnagar, Uttar Pradesh", "coordinates": [80.143212, 27.081164]}, "GATD": {"state": "Jharkhand", "name": "Gautamdhara", "zone": "SER", "address": "Gautamdhara, Jharkhand", "coordinates": [85.6329945703, 23.3498809788]}, "GEG": {"state": "Gujarat", "name": "Gir Gadhara", "zone": "WR", "address": "Junagadh, Gujarat", "coordinates": [70.919246, 20.906347]}, "FLD": {"state": "Rajasthan", "name": "Phulad", "zone": "NWR", "address": "State Highway 62, Rajasthan", "coordinates": [73.81311799999999, 25.623979]}, "GADM": {"state": "Uttar Pradesh", "name": "Ganga Dham", "zone": "NER", "address": "Ganga Dham, Uttar Pradesh", "coordinates": [81.930509, 27.20976]}, "DTR": {"state": "Chhattisgarh", "name": "Dhamtari", "zone": "SECR", "address": "Dhamtari, Chhattisgarh", "coordinates": [81.550321, 20.714515000000002]}, "DRW": {"state": "Gujarat", "name": "DHAREWADA", "zone": "WR", "address": "Unjha, Gujarat", "coordinates": [72.378575, 23.960815999999998]}, "KZQ": {"state": "Rajasthan", "name": "KHIMEL", "zone": "NWR", "address": "Jawai Bandh, Rajasthan", "coordinates": [73.279577, 25.300189]}, "HDU": {"state": null, "name": "HARDUA", "zone": null, "address": null, "coordinates": [80.2834127417, 23.9150542164]}, "HDW": {"state": "Uttarakhand", "name": "HALDWANI", "zone": "NER", "address": "Haldwani, Uttarakhand", "coordinates": [79.533732, 29.215097]}, "AKT": {"state": null, "name": "AKALTARA", "zone": null, "address": null, "coordinates": [82.422049, 22.029121]}, "HBU": {"state": "Karnataka", "name": "Halbarga", "zone": "SCR", "address": "Halbarga, Karnataka", "coordinates": [77.298175, 17.988470000000003]}, "GNH": {"state": "Maharashtra", "name": "GANGAKHER", "zone": "SCR", "address": "State Highway 217, Maharashtra", "coordinates": [76.755511, 18.973377]}, "NIA": {"state": null, "name": "NAILA", "zone": null, "address": null, "coordinates": [82.56458900000001, 22.022963999999998]}, "KMGE": {"state": null, "name": "KUMAHU", "zone": null, "address": null, "coordinates": [83.946305, 24.976944]}, "SSG": {"state": null, "name": "SHIU SAGAR ROAD", "zone": null, "address": null, "coordinates": [83.895453, 24.999464999999997]}, "CPH": {"state": null, "name": "CHAMPA", "zone": null, "address": null, "coordinates": [82.665149, 22.034731]}, "GPX": {"state": "Madhya Pradesh", "name": "Gautampura Road", "zone": "WR", "address": "Barnagar, Madhya Pradesh", "coordinates": [75.68198989999999, 23.2008894]}, "RGQ": {"state": "Gujarat", "name": "RAIGADH ROAD", "zone": "NWR", "address": "National Highway 8, Gujarat", "coordinates": [73.183592, 23.596666]}, "GS": {"state": "Gujarat", "name": "GODHANESHWAR", "zone": "WR", "address": "Bagodara Dholka Link Rd, Gujarat", "coordinates": [72.36834, 22.68118]}, "GLH": {"state": "Uttar Pradesh", "name": "Gulaothi", "zone": "NR", "address": "Gulaothi, Uttar Pradesh", "coordinates": [77.801799, 28.582962]}, "HNB": {"state": "West Bengal", "name": "Hasanabad", "zone": "ER", "address": "Taki, West Bengal", "coordinates": [88.912953, 22.570155]}, "PUA": {"state": null, "name": "PULLA", "zone": null, "address": null, "coordinates": [81.324846, 16.809911]}, "KKRM": {"state": null, "name": "KAIKORAM", "zone": null, "address": null, "coordinates": [81.36421899999999, 16.815341]}, "JER": {"state": null, "name": "JALESWAR", "zone": null, "address": null, "coordinates": [87.22049100000001, 21.79749]}, "FYZ": {"state": null, "name": "FAIZULLAPUR", "zone": null, "address": null, "coordinates": [80.893347, 25.869213]}, "ED": {"state": null, "name": "ERODE JN", "zone": null, "address": null, "coordinates": [77.72593400000001, 11.327682]}, "HR": {"state": "Rajasthan", "name": "Harpalu", "zone": "NWR", "address": "Bahal, Rajasthan", "coordinates": [75.4910470972, 28.569053803099997]}, "RUB": {"state": null, "name": "RASULABAD", "zone": null, "address": null, "coordinates": [80.977088, 25.826999]}, "SNIE": {"state": null, "name": "SATH NARAINI", "zone": null, "address": null, "coordinates": [81.03942, 25.795325]}, "DUR": {"state": "Karnataka", "name": "DESUR", "zone": "SWR", "address": "Desur, Karnataka", "coordinates": [74.49801, 15.754344]}, "CNC": {"state": "Karnataka", "name": "CHINCHLI", "zone": "SWR", "address": "Belagavi, Karnataka", "coordinates": [74.855323, 16.571696999999997]}, "MTB": {"state": null, "name": "MATLABPUR", "zone": null, "address": null, "coordinates": [78.656727, 28.989821]}, "KNT": {"state": null, "name": "KANTH", "zone": null, "address": null, "coordinates": [78.621471, 29.059768000000002]}, "MWE": {"state": null, "name": "MEWA NAWADA", "zone": null, "address": null, "coordinates": [78.613167, 29.118385]}, "SEO": {"state": null, "name": "SEOHARA", "zone": null, "address": null, "coordinates": [78.580977, 29.204807000000002]}, "CAJ": {"state": null, "name": "CHAKRAJ MAL", "zone": null, "address": null, "coordinates": [78.536047, 29.249784000000002]}, "DPR": {"state": null, "name": "DHAMPUR", "zone": null, "address": null, "coordinates": [78.501588, 29.305446]}, "HBW": {"state": null, "name": "HABIBWALA", "zone": null, "address": null, "coordinates": [78.47897300000001, 29.349034]}, "GKD": {"state": "Gujarat", "name": "GADHAKDA", "zone": "WR", "address": "Gadhakada Rd, Gujarat", "coordinates": [71.38171899999999, 21.237962]}, "PNI": {"state": null, "name": "PURAINI", "zone": null, "address": null, "coordinates": [78.445574, 29.388929]}, "NGG": {"state": null, "name": "NAGINA", "zone": null, "address": null, "coordinates": [78.424119, 29.437919]}, "BEK": {"state": null, "name": "BUNDKI", "zone": null, "address": null, "coordinates": [78.3932854, 29.522577000000002]}, "GYN": {"state": "Uttar Pradesh", "name": "GYANPUR ROAD", "zone": "NER", "address": "Bhadohi District, Uttar Pradesh", "coordinates": [82.4272883557, 25.280144010999997]}, "MSDR": {"state": null, "name": "MURSHADPUR", "zone": null, "address": null, "coordinates": [78.3756456903, 29.57239523]}, "NBD": {"state": null, "name": "NAJIBABAD JN", "zone": null, "address": null, "coordinates": [78.335733, 29.603540000000002]}, "FZL": {"state": null, "name": "FAZALPUR", "zone": null, "address": null, "coordinates": [78.27795372130001, 29.5937410175]}, "CNK": {"state": null, "name": "CHANDOK", "zone": null, "address": null, "coordinates": [78.152782, 29.576786]}, "BLW": {"state": null, "name": "BALAWALI", "zone": null, "address": null, "coordinates": [78.1124328, 29.6274345]}, "RSI": {"state": null, "name": "RAISI", "zone": null, "address": null, "coordinates": [78.0664335504, 29.6928321018]}, "AAR": {"state": "Gujarat", "name": "ADESAR", "zone": "WR", "address": "Dist. Kachchh, Gujarat", "coordinates": [70.9720505023, 23.552978399500002]}, "HRR": {"state": "Karnataka", "name": "HARIHAR", "zone": "SWR", "address": "Harihar, Karnataka", "coordinates": [75.812314, 14.515431]}, "GVA": {"state": "Andhra Pradesh", "name": "Ganguwada", "zone": "ECoR", "address": "Ganguwada, Andhra Pradesh", "coordinates": [84.1072235, 18.66763705]}, "GUX": {"state": "Madhya Pradesh", "name": "Gurhi", "zone": "SCR", "address": "Khandwa, Madhya Pradesh", "coordinates": [76.58074500000001, 21.629554]}, "HMH": {"state": "Rajasthan", "name": "HANUMANGARH JN", "zone": "NWR", "address": "Hanumangarh, Rajasthan", "coordinates": [74.297633, 29.614904]}, "AAM": {"state": "Kerala", "name": "Angadippuram", "zone": "SR", "address": "Angadipuram, Kerala", "coordinates": [76.20734300000001, 10.979489000000001]}, "PHR": {"state": null, "name": "PHILLAUR JN", "zone": null, "address": null, "coordinates": [75.78576100000001, 31.016907]}, "LDW": {"state": null, "name": "LADHOWAL", "zone": null, "address": null, "coordinates": [75.78581100000001, 31.016957]}, "LDH": {"state": null, "name": "LUDHIANA JN", "zone": null, "address": null, "coordinates": [75.84787299999999, 30.912367]}, "BHOI": {"state": null, "name": "DHANDARIKALAN BLOCK HUT", "zone": null, "address": null, "coordinates": [75.87188, 30.894741]}, "HKR": {"state": "Maharashtra", "name": "Kiwar Khed", "zone": "SCR", "address": "State Highway 194, Maharashtra", "coordinates": [76.8767, 21.186952]}, "DDL": {"state": null, "name": "DHANDARI KALAN", "zone": null, "address": null, "coordinates": [75.90949099999999, 30.874477]}, "SNL": {"state": null, "name": "SANAHWAL", "zone": null, "address": null, "coordinates": [75.9795, 30.837436]}, "DOA": {"state": null, "name": "DORAHA", "zone": null, "address": null, "coordinates": [76.04330300000001, 30.804137]}, "JSPN": {"state": null, "name": "JASPALON", "zone": null, "address": null, "coordinates": [76.0801522656, 30.7847375851]}, "CHA": {"state": null, "name": "CHAWAPALL", "zone": null, "address": null, "coordinates": [76.127464975, 30.7594625741]}, "KNN": {"state": null, "name": "KHANNA", "zone": null, "address": null, "coordinates": [76.22513400000001, 30.707973]}, "GVG": {"state": null, "name": "GOVINDGARH", "zone": null, "address": null, "coordinates": [76.2970739075, 30.6694834261]}, "SIR": {"state": null, "name": "SIRHIND JN", "zone": null, "address": null, "coordinates": [76.383194, 30.624222]}, "SDY": {"state": null, "name": "SADHOO GARH", "zone": null, "address": null, "coordinates": [76.44847259640001, 30.5828632034]}, "SBJ": {"state": null, "name": "SARAI BANJARA", "zone": null, "address": null, "coordinates": [76.515682, 30.538386]}, "RPJ": {"state": null, "name": "RAJPURA JN", "zone": null, "address": null, "coordinates": [76.5940201901, 30.486458949]}, "SMU": {"state": null, "name": "SAMBHU", "zone": null, "address": null, "coordinates": [76.684143667, 30.4290274715]}, "CDL": {"state": null, "name": "CHODIALA", "zone": null, "address": null, "coordinates": [77.738546, 29.896397999999998]}, "IQB": {"state": null, "name": "IQBALPUR", "zone": null, "address": null, "coordinates": [77.803799, 29.875114]}, "RK": {"state": null, "name": "ROORKEE", "zone": null, "address": null, "coordinates": [77.87417, 29.851671]}, "DNRA": {"state": null, "name": "DHANDHERA", "zone": null, "address": null, "coordinates": [77.9019227979, 29.8434029837]}, "DSNI": {"state": null, "name": "DAUSNI", "zone": null, "address": null, "coordinates": [77.979636, 29.784745]}, "CPT": {"state": "Karnataka", "name": "CHANNAPATNA", "zone": "SWR", "address": "Channapatna, Karnataka", "coordinates": [77.203824, 12.659673000000002]}, "KGF": {"state": null, "name": "KATHGHAR", "zone": null, "address": null, "coordinates": [78.796689, 28.826066]}, "DLP": {"state": null, "name": "DALPATPUR", "zone": null, "address": null, "coordinates": [78.87718699999999, 28.820438]}, "MPH": {"state": null, "name": "MUNDHA PANDE", "zone": null, "address": null, "coordinates": [78.939038, 28.800366999999998]}, "RMU": {"state": null, "name": "RAMPUR", "zone": null, "address": null, "coordinates": [79.023419, 28.778862999999998]}, "SAR": {"state": null, "name": "SHAHZAD NAGAR", "zone": null, "address": null, "coordinates": [79.05214699999999, 28.750033000000002]}, "DAM": {"state": null, "name": "DHAMORA", "zone": null, "address": null, "coordinates": [79.087745, 28.707129000000002]}, "AABH": {"state": null, "name": "AMBIKA BHAWANI HALT", "zone": null, "address": null, "coordinates": [84.9690033484, 25.751433665]}, "DGA": {"state": null, "name": "DIGHWARA", "zone": null, "address": null, "coordinates": [85.003168, 25.743938]}, "STLR": {"state": null, "name": "SITALPUR", "zone": null, "address": null, "coordinates": [85.03663800000001, 25.768739999999998]}, "JDR": {"state": "Bihar", "name": "JIWDHARA", "zone": "ECR", "address": "Jiwdhara, Bihar", "coordinates": [84.906874, 26.581722]}, "AWP": {"state": null, "name": "AGHWANPUR", "zone": null, "address": null, "coordinates": [78.702865, 28.939542]}, "KIA": {"state": "Gujarat", "name": "KHARI AMRAPUR", "zone": "WR", "address": "State Highway 237, Gujarat", "coordinates": [72.913948, 23.390711]}, "IMR": {"state": "Karnataka", "name": "IBRAHIMPUR", "zone": "SWR", "address": "Bijapur, Karnataka", "coordinates": [75.719362, 16.802926]}, "JND": {"state": "Gujarat", "name": "JUNAGADH JN", "zone": "WR", "address": "Junagadh, Gujarat", "coordinates": [70.457612, 21.530606]}, "JA": {"state": "Gujarat", "name": "JALIYA", "zone": "WR", "address": "Ranuja Village Rd, Gujarat", "coordinates": [71.6324910046, 21.8163569109]}, "IDP": {"state": "Andhra Pradesh", "name": "INDUPALLI", "zone": "SCR", "address": "Krishna, Andhra Pradesh", "coordinates": [80.87706899999999, 16.479094]}, "DBL": {"state": "Karnataka", "name": "DODBELE", "zone": "SWR", "address": "National Highway 4, Karnataka", "coordinates": [77.351193, 13.216441000000001]}, "KVD": {"state": null, "name": "KHURMABAD ROAD", "zone": null, "address": null, "coordinates": [83.848303, 25.021489000000003]}, "JBO": {"state": "Jharkhand", "name": "Jamadobu", "zone": "SER", "address": "Jharia, Jharkhand", "coordinates": [86.410031, 23.715138999999997]}, "KTQ": {"state": null, "name": "KUDRA", "zone": null, "address": null, "coordinates": [83.79337100000001, 25.048552]}, "PSE": {"state": null, "name": "PUSAULI", "zone": null, "address": null, "coordinates": [83.72151, 25.097235]}, "STPT": {"state": null, "name": "SITAMPET", "zone": null, "address": null, "coordinates": [81.211206, 16.797409]}, "JHBN": {"state": "West Bengal", "name": "JHAMATPUR BAHARAN", "zone": "ER", "address": "Goai, West Bengal", "coordinates": [88.098669, 23.749987]}, "UBC": {"state": null, "name": "AMBALA CITY", "zone": null, "address": null, "coordinates": [76.763996, 30.378497]}, "JIT": {"state": "West Bengal", "name": "JIRAT", "zone": "ER", "address": "Jirat, West Bengal", "coordinates": [88.461461, 23.098255]}, "BMD": {"state": null, "name": "BHIMADOLU", "zone": null, "address": null, "coordinates": [81.26109679, 16.80848173]}, "JDD": {"state": "Rajasthan", "name": "Jerthi Dadhia", "zone": "NWR", "address": "MDR 87, Rajasthan", "coordinates": [75.2010774705559, 27.731618001396782]}, "LXD": {"state": null, "name": "LAKSHANNATH ROAD", "zone": null, "address": null, "coordinates": [87.25095300000001, 21.842011]}, "JGJN": {"state": "Assam", "name": "JUGIJAN", "zone": "NFR", "address": "National Highway 36, Assam", "coordinates": [92.81771, 26.028001]}, "JMI": {"state": "Assam", "name": "JAMGURI", "zone": "NFR", "address": "National Highway 39, Assam", "coordinates": [93.9604479663, 26.3877071452]}, "CSM": {"state": "Goa", "name": "CANSAULIM", "zone": "SWR", "address": "Arossim Beach Rd, Goa", "coordinates": [73.897226, 15.344532000000001]}, "BPW": {"state": null, "name": "BURHPURA", "zone": null, "address": null, "coordinates": [78.42955, 25.211179]}, "IDM": {"state": "Uttar Pradesh", "name": "Indemau", "zone": "NR", "address": "Indemau, Uttar Pradesh", "coordinates": [80.767021, 26.318344]}, "KSR": {"state": null, "name": "KASTURI", "zone": null, "address": null, "coordinates": [81.728838, 27.139983]}, "MIR": {"state": null, "name": "MAIJAPUR", "zone": null, "address": null, "coordinates": [81.773788, 27.141734]}, "JNO": {"state": "Madhya Pradesh", "name": "Junnor Deo", "zone": "CR", "address": "Dongar Parasia, Madhya Pradesh", "coordinates": [78.592052, 22.191279]}, "GDK": {"state": null, "name": "GONDA KACHAHRI", "zone": null, "address": null, "coordinates": [81.93402688110001, 27.1402272205]}, "BRCK": {"state": null, "name": "BARUACHAK", "zone": null, "address": null, "coordinates": [82.055181, 27.122672]}, "JOL": {"state": "Orissa", "name": "Jogal", "zone": "?", "address": "Jogal, Orissa", "coordinates": [86.88271399999999, 21.696442]}, "ICL": {"state": "Uttar Pradesh", "name": "Ichauli", "zone": "NCR", "address": "Maudaha, Uttar Pradesh", "coordinates": [80.178833, 25.520955]}, "MOTG": {"state": null, "name": "MOTIGANJ", "zone": null, "address": null, "coordinates": [82.103635, 27.101387]}, "JLHI": {"state": null, "name": "JHILAHI", "zone": null, "address": null, "coordinates": [82.17287785639999, 27.072604043299997]}, "KAU": {"state": "West Bengal", "name": "Kachna", "zone": "NFR", "address": "National Highway 34, West Bengal", "coordinates": [88.0246425354, 25.6337383216]}, "BBHL": {"state": null, "name": "Bela Bela", "zone": null, "address": null, "coordinates": [81.2487596802, 26.137192374999998]}, "JOA": {"state": "Maharashtra", "name": "JANWAL", "zone": "SCR", "address": "Latur, Maharashtra", "coordinates": [76.75514700000001, 18.559639999999998]}, "JADR": {"state": "Gujarat", "name": "Jadar", "zone": "WR", "address": "State Highway 9, Gujarat", "coordinates": [72.952369, 23.745814000000003]}, "JJW": {"state": "Gujarat", "name": "Jojwa", "zone": "WR", "address": "Vadodara, Gujarat", "coordinates": [73.642431, 22.253213000000002]}, "MUR": {"state": null, "name": "MANKAPUR JN", "zone": null, "address": null, "coordinates": [82.227648, 27.039058]}, "LKNR": {"state": null, "name": "LAKHPAT NAGAR", "zone": null, "address": null, "coordinates": [82.2775887885, 27.0276257858]}, "MSW": {"state": null, "name": "MASKANWA", "zone": null, "address": null, "coordinates": [82.3597396039, 27.0013792301]}, "ANU": {"state": null, "name": "ANANGUR", "zone": null, "address": null, "coordinates": [77.820053, 11.396939999999999]}, "POE": {"state": null, "name": "Pawapuri Road Halt", "zone": null, "address": null, "coordinates": [85.512918, 25.160225]}, "SNC": {"state": null, "name": "S NARAYAN CHPLA", "zone": null, "address": null, "coordinates": [82.3961659851, 26.9810021017]}, "HSB": {"state": "Bihar", "name": "Hasanbazar Halt", "zone": "ECR", "address": "Hasan Bazar, Bihar", "coordinates": [84.34929577759999, 25.2665823122]}, "BNGY": {"state": null, "name": "BAHMAN JYOTIA", "zone": null, "address": null, "coordinates": [82.4273550012, 26.9662637829]}, "PATI": {"state": null, "name": "PARSA TEWARI", "zone": null, "address": null, "coordinates": [82.45215499999999, 26.95565]}, "JI": {"state": "Uttar Pradesh", "name": "JHUSI", "zone": "NER", "address": "NH 2, Uttar Pradesh", "coordinates": [81.91664399999999, 25.431145]}, "GOVR": {"state": null, "name": "GOVINDNAGAR", "zone": null, "address": null, "coordinates": [82.707468, 26.864223000000003]}, "BST": {"state": null, "name": "BASTI", "zone": null, "address": null, "coordinates": [82.77005899999999, 26.815678]}, "ORW": {"state": null, "name": "ORWARA", "zone": null, "address": null, "coordinates": [82.83031100000001, 26.802388999999998]}, "CRV": {"state": null, "name": "CHUREB", "zone": null, "address": null, "coordinates": [82.97763599999999, 26.782155]}, "MOW": {"state": null, "name": "MANANWALA", "zone": null, "address": null, "coordinates": [74.96656200000001, 31.612827000000003]}, "JNL": {"state": null, "name": "JANDIALA", "zone": null, "address": null, "coordinates": [75.05441200000001, 31.589979]}, "TRA": {"state": null, "name": "TANGRA", "zone": null, "address": null, "coordinates": [75.107232, 31.576425999999998]}, "JSH": {"state": "Rajasthan", "name": "Jaswantgarh", "zone": "NWR", "address": "Sujangarh, Rajasthan", "coordinates": [74.44396800000001, 27.668988]}, "BTR": {"state": null, "name": "BUTARI", "zone": null, "address": null, "coordinates": [75.183274, 31.556444]}, "BBKR": {"state": null, "name": "BABA BAKALARAYA", "zone": null, "address": null, "coordinates": [75.238827, 31.541835000000003]}, "BEAS": {"state": null, "name": "BEAS", "zone": null, "address": null, "coordinates": [75.2908085, 31.5193738]}, "DIW": {"state": null, "name": "DHILWAN", "zone": null, "address": null, "coordinates": [75.335011, 31.498953]}, "RYM": {"state": null, "name": "RAMIDI HALT", "zone": null, "address": null, "coordinates": [75.4078429907, 31.4659508779]}, "JKI": {"state": "Uttar Pradesh", "name": "Kauriaa Jungle", "zone": "?", "address": "National Highway 29, Uttar Pradesh", "coordinates": [83.29979800000001, 26.881072]}, "HMR": {"state": null, "name": "HAMIRA", "zone": null, "address": null, "coordinates": [75.432702, 31.45628]}, "KRE": {"state": null, "name": "KARTARPUR", "zone": null, "address": null, "coordinates": [75.492544, 31.432388]}, "SRX": {"state": null, "name": "SURA NUSSI", "zone": null, "address": null, "coordinates": [75.541964, 31.380553]}, "POM": {"state": null, "name": "Punthottam", "zone": null, "address": null, "coordinates": [79.65731229, 10.93262802]}, "LOHA": {"state": "Rajasthan", "name": "Loha", "zone": "NWR", "address": "Ratangarh, Rajasthan", "coordinates": [74.619424, 28.006921]}, "BBSL": {"state": null, "name": "BABA SODHAL NAGAR", "zone": null, "address": null, "coordinates": [75.5648681348, 31.3530203474]}, "JUC": {"state": null, "name": "JALANDHAR CITY", "zone": null, "address": null, "coordinates": [75.591499, 31.331665]}, "KBA": {"state": "Andhra Pradesh", "name": "Kurabalakota", "zone": "SCR", "address": "Kurabalakota Railway Station, Andhra Pradesh", "coordinates": [78.48584299999999, 13.666284000000001]}, "JRC": {"state": null, "name": "JALANDHAR CANT", "zone": null, "address": null, "coordinates": [75.63210600000001, 31.306235]}, "ABE": {"state": "Madhya Pradesh", "name": "Ambikeshwar", "zone": "NCR", "address": "State Highway 2, Madhya Pradesh", "coordinates": [77.963828, 26.368567]}, "CEU": {"state": null, "name": "CHIHERU", "zone": null, "address": null, "coordinates": [75.70669127869999, 31.262694745]}, "MLIH": {"state": null, "name": "MAULI HALT", "zone": null, "address": null, "coordinates": [75.769234, 31.175]}, "MAUL": {"state": null, "name": "MAULA ALI", "zone": null, "address": null, "coordinates": [75.769544, 31.17531]}, "GRY": {"state": null, "name": "GORAYA", "zone": null, "address": null, "coordinates": [75.77419300000001, 31.129722]}, "JTO": {"state": "Himachal Pradesh", "name": "Jutogh", "zone": "NR", "address": "Shimla, Himachal Pradesh", "coordinates": [77.122043, 31.100734]}, "JPS": {"state": "Punjab", "name": "Jamalpur Shaikhan", "zone": "?", "address": "MDR 101, Punjab", "coordinates": [75.857438, 29.699949]}, "BTTN": {"state": null, "name": "BHATIAN", "zone": null, "address": null, "coordinates": [75.780007, 31.071444]}, "PPDA": {"state": null, "name": "PANCHPATIA DEORIA HALT", "zone": null, "address": null, "coordinates": [84.9361293799, 25.768730655699997]}, "KHBV": {"state": "Maharashtra", "name": "KHARBAO", "zone": "CR", "address": "Thane, Maharashtra", "coordinates": [72.983444, 19.297247]}, "KEV": {"state": "Rajasthan", "name": "KELA DEVI", "zone": "WCR", "address": "Bharatpur, Rajasthan", "coordinates": [77.329069, 27.015612]}, "KDE": {"state": "Tamil Nadu", "name": "KORADACHERI", "zone": "SR", "address": "Koradacheri, Tamil Nadu", "coordinates": [79.49003499999999, 10.771022]}, "SHGN": {"state": null, "name": "SHRI GHASINAGAR", "zone": null, "address": null, "coordinates": [76.6268054126, 27.086514837299998]}, "QGT": {"state": null, "name": "KOLAGHAT", "zone": null, "address": null, "coordinates": [87.879653656, 22.434330919300002]}, "BW": {"state": null, "name": "BIWAI", "zone": null, "address": null, "coordinates": [76.6960924713, 27.110623039700002]}, "KHM": {"state": null, "name": "KUSMHI", "zone": null, "address": null, "coordinates": [83.453837, 26.72824]}, "NYN": {"state": null, "name": "NAINI", "zone": null, "address": null, "coordinates": [81.86004199999999, 25.393138]}, "CTHR": {"state": "Madhya Pradesh", "name": "CHITAHRA", "zone": "WCR", "address": "MDR 11, Madhya Pradesh", "coordinates": [80.842854, 24.862627000000003]}, "STA": {"state": "Madhya Pradesh", "name": "SATNA", "zone": "WCR", "address": "Satna, Madhya Pradesh", "coordinates": [80.827717, 24.568619]}, "KALS": {"state": "Karnataka", "name": "KALAS HALT", "zone": "SWR", "address": "State Highway 6, Karnataka", "coordinates": [75.3899776996, 15.08644671]}, "KLPM": {"state": "Tamil Nadu", "name": "KAILASAPURAM", "zone": "SR", "address": "Thattaparai, Tamil Nadu", "coordinates": [77.9946102, 8.847387005]}, "KHNP": {"state": "Karnataka", "name": "Khanapur Deccan", "zone": "SCR", "address": "State Highway 4, Karnataka", "coordinates": [77.382161, 17.942175]}, "KBSH": {"state": "Jharkhand", "name": "Krishna Ballabh", "zone": "ER", "address": "Giridih, Jharkhand", "coordinates": [86.482965, 24.255819]}, "KEMA": {"state": "Gujarat", "name": "KUKMA", "zone": "WR", "address": "Kutch, Gujarat", "coordinates": [69.766265, 23.217031]}, "KKDI": {"state": "Tamil Nadu", "name": "Karaikkudi Junction", "zone": "SR", "address": "Ariyakudi Road, Tamil Nadu", "coordinates": [78.79331499999999, 10.068518]}, "JXN": {"state": "Maharashtra", "name": "JIRONA", "zone": "?", "address": "Nanded, Maharashtra", "coordinates": [77.95139499999999, 19.407451000000002]}, "KJZ": {"state": "Chhattisgarh", "name": "KARONJI", "zone": "SECR", "address": "Devipur, Chhattisgarh", "coordinates": [82.923013, 23.282475]}, "KDZ": {"state": "Himachal Pradesh", "name": "Kandaghat", "zone": "NR", "address": "Kandhaghat, Himachal Pradesh", "coordinates": [77.106996, 30.965544]}, "NPB": {"state": "Tamil Nadu", "name": "Nagapattinam Beach", "zone": "SR", "address": "Nagapattinam, Tamil Nadu", "coordinates": [79.848443, 10.764487]}, "MNU": {"state": null, "name": "MUNDIKOTA", "zone": null, "address": null, "coordinates": [79.834833, 21.372513]}, "JWN": {"state": "Punjab", "name": "Jiwa Arain", "zone": "NR", "address": "State Highway 20, Punjab", "coordinates": [74.355654, 30.673761]}, "KWN": {"state": null, "name": "KACHEWANI", "zone": null, "address": null, "coordinates": [79.981657, 21.430310000000002]}, "AGN": {"state": null, "name": "AMGAON", "zone": null, "address": null, "coordinates": [80.3746491022, 21.361292855400002]}, "LNMA": {"state": null, "name": "LNMA", "zone": null, "address": null, "coordinates": "NA"}, "DURG": {"state": null, "name": "DURG", "zone": null, "address": null, "coordinates": [81.291837, 21.200326999999998]}, "KPNA": {"state": null, "name": "KAPAN", "zone": null, "address": null, "coordinates": [82.494827, 22.026018]}, "KDTR": {"state": null, "name": "KIRODIMALNAGAR", "zone": null, "address": null, "coordinates": [83.33250699999999, 21.926994]}, "MTGE": {"state": null, "name": "MUTHANI", "zone": null, "address": null, "coordinates": [83.61914300000001, 25.173236999999997]}, "SPF": {"state": null, "name": "STUARTPURAM", "zone": null, "address": null, "coordinates": [80.406913, 15.868003]}, "EE": {"state": null, "name": "ELURU", "zone": null, "address": null, "coordinates": [81.11976200000001, 16.717816]}, "DEL": {"state": null, "name": "DENDULURU", "zone": null, "address": null, "coordinates": [81.18047200000001, 16.781406]}, "AGV": {"state": null, "name": "ANGUA", "zone": null, "address": null, "coordinates": [87.26992299999999, 21.892581999999997]}, "DNT": {"state": null, "name": "DANTAN", "zone": null, "address": null, "coordinates": [87.284055, 21.930376]}, "KHTN": {"state": "Bihar", "name": "Khutauna", "zone": "ECR", "address": "Khutuana, Bihar", "coordinates": [86.397414, 26.494365000000002]}, "BBU": {"state": null, "name": "BHABUA ROAD", "zone": null, "address": null, "coordinates": [83.618913, 25.173007]}, "KJC": {"state": "Uttar Pradesh", "name": "Kasganj City", "zone": "NER", "address": "State Highway 33, Uttar Pradesh", "coordinates": [78.658063, 27.814972]}, "DGO": {"state": null, "name": "DURGAUTI", "zone": null, "address": null, "coordinates": [83.539684, 25.207897000000003]}, "MVPM": {"state": null, "name": "MAVELIPALAIYAM", "zone": null, "address": null, "coordinates": [77.89921204650001, 11.4809140096]}, "SGE": {"state": null, "name": "SANKARIDURG", "zone": null, "address": null, "coordinates": [77.870439, 11.445732]}, "DCX": {"state": null, "name": "DHANICHHA", "zone": null, "address": null, "coordinates": [83.4908372314, 25.2271654039]}, "KID": {"state": "Uttar Pradesh", "name": "KHAIRAR JN", "zone": "NCR", "address": "NH-76 Banda(05192-224813), Uttar Pradesh", "coordinates": [80.236073, 25.451955]}, "KHOH": {"state": "Uttar Pradesh", "name": "KHOH", "zone": "NCR", "address": "National Highway 76, Uttar Pradesh", "coordinates": [80.979976, 25.209491000000003]}, "KLI": {"state": "Punjab", "name": "Kauli", "zone": "NR", "address": "National Highway 64, Punjab", "coordinates": [76.51987899999999, 30.418387999999997]}, "KLAR": {"state": "Uttar Pradesh", "name": "KULPAHAR", "zone": "NCR", "address": "Kulpahar, Uttar Pradesh", "coordinates": [79.63751, 25.29552]}, "KMS": {"state": null, "name": "KARAMNASA", "zone": null, "address": null, "coordinates": [83.430892, 25.239738]}, "KHBJ": {"state": "Madhya Pradesh", "name": "KHANNA BANJARI", "zone": "WCR", "address": "State Highway 11, Madhya Pradesh", "coordinates": [80.822716, 23.897087]}, "SYJ": {"state": null, "name": "SAIDRAJA", "zone": null, "address": null, "coordinates": [83.35118, 25.253531]}, "GAQ": {"state": null, "name": "GANJ KHAWAJA", "zone": null, "address": null, "coordinates": [83.18436299999999, 25.273922000000002]}, "FOCM": {"state": null, "name": "FLYOVER CABIN MUGHALSARAI", "zone": null, "address": null, "coordinates": [83.172391, 25.289358999999997]}, "KCT": {"state": "Uttar Pradesh", "name": "Kirakat", "zone": "NER", "address": "Jaunpur, Uttar Pradesh", "coordinates": [82.924798, 25.645355]}, "KLD": {"state": null, "name": "KHALILABAD", "zone": null, "address": null, "coordinates": [83.055073, 26.77453]}, "MHH": {"state": null, "name": "MAGHAR", "zone": null, "address": null, "coordinates": [83.133741, 26.750013]}, "SIPR": {"state": null, "name": "SIHAPAR", "zone": null, "address": null, "coordinates": [83.16487227660001, 26.757903231]}, "SWA": {"state": null, "name": "SAHJANWA", "zone": null, "address": null, "coordinates": [83.2147, 26.763075]}, "MWH": {"state": null, "name": "MALWAN", "zone": null, "address": null, "coordinates": [80.685594, 26.017246]}, "JTB": {"state": null, "name": "JAGATBELA", "zone": null, "address": null, "coordinates": [83.278505, 26.772224]}, "KJS": {"state": "Karnataka", "name": "Krishnarajasagar", "zone": "SWR", "address": "Mandya District, Karnataka", "coordinates": [76.56702899999999, 12.401425999999999]}, "KLK": {"state": "Haryana", "name": "Kalka", "zone": "NR", "address": "Kalka, Haryana", "coordinates": [76.931759, 30.837667]}, "PNS": {"state": null, "name": "PILLAMSHAT", "zone": null, "address": null, "coordinates": "NA"}, "KKS": {"state": null, "name": "KURASTI KALAN", "zone": null, "address": null, "coordinates": [80.752455, 25.955085]}, "FTP": {"state": null, "name": "FATEHPUR", "zone": null, "address": null, "coordinates": [80.801869, 25.917489]},